[{
  "id": 0,
  "name": "Cozinha Brasil",
  "center": "Polo Paraty",
  "state": "RJ",
  "city": "Paraty",
  "neighborhood": "Centro",
  "description": "Pellentesque euismod bibendum est eget scelerisque. Nam aliquam dolor vel lorem mollis, et maximus purus consectetur. Ut erat orci, interdum vel varius id, vehicula a elit. Proin consequat nulla eu placerat rhoncus. Pellentesque nisi magna, imperdiet vitae nibh vel, imperdiet hendrerit odio. Nunc semper a neque scelerisque interdum. Vestibulum elementum sollicitudin odio a imperdiet. Praesent eget semper magna, id varius magna.",
  "openHours": "Segunda a domingo, 12h as 22h",
  "address": "Rua Presidente Vargas, 123",
  "phone": "21 1234-5678",
  "M4T": false,
  "photoUrl": "http://lorempixel.com/400/200/nightlife/",
  "created": "20-03-2016 17:30",
  "updated": null,
  "lat": "-23.219713",
  "lng": "-44.714359"
},
{
  "id": 1,
  "name": "Batata Gigante",
  "center": "Polo Rio Antigo",
  "state": "RJ",
  "city": "Rio de Janeiro",
  "neighborhood": "Lapa",
  "description": "Pellentesque euismod bibendum est eget scelerisque. Nam aliquam dolor vel lorem mollis, et maximus purus consectetur. Ut erat orci, interdum vel varius id, vehicula a elit. Proin consequat nulla eu placerat rhoncus. Pellentesque nisi magna, imperdiet vitae nibh vel, imperdiet hendrerit odio. Nunc semper a neque scelerisque interdum. Vestibulum elementum sollicitudin odio a imperdiet. Praesent eget semper magna, id varius magna.",
  "openHours": "Segunda a Sexta, 12h as 22h",
  "address": "Rua João da Silva, 123",
  "phone": "21 1234-5678",
  "M4T": true,
  "photoUrl": "http://lorempixel.com/400/200/food/",
  "created": "04-02-2016 11:30",
  "updated": null,
  "lat": "-22.914248",
  "lng": "-43.183357"
},
{
  "id": 2,
  "name": "Paraty Gourmet",
  "center": "Polo Paraty",
  "state": "RJ",
  "city": "Paraty",
  "neighborhood": "ab",
  "description": "Pellentesque euismod bibendum est eget scelerisque. Nam aliquam dolor vel lorem mollis, et maximus purus consectetur. Ut erat orci, interdum vel varius id, vehicula a elit. Proin consequat nulla eu placerat rhoncus. Pellentesque nisi magna, imperdiet vitae nibh vel, imperdiet hendrerit odio. Nunc semper a neque scelerisque interdum. Vestibulum elementum sollicitudin odio a imperdiet. Praesent eget semper magna, id varius magna.",
  "openHours": "Segunda a Sabado, 18h as 4h",
  "address": "Rua Rio Branco, 123",
  "phone": "21 1234-5678",
  "M4T": false,
  "photoUrl": "http://lorempixel.com/400/200/people/",
  "created": "20-05-2016 12:30",
  "updated": null,
  "lat": "-23.221670",
  "lng": "-44.716499"
},
{
  "id": 2,
  "name": "Camarão Bar & Restaurante",
  "center": "Polo Niterói",
  "state": "RJ",
  "city": "Niterói",
  "neighborhood": "Icaraí",
  "description": "Pellentesque euismod bibendum est eget scelerisque. Nam aliquam dolor vel lorem mollis, et maximus purus consectetur. Ut erat orci, interdum vel varius id, vehicula a elit. Proin consequat nulla eu placerat rhoncus. Pellentesque nisi magna, imperdiet vitae nibh vel, imperdiet hendrerit odio. Nunc semper a neque scelerisque interdum. Vestibulum elementum sollicitudin odio a imperdiet. Praesent eget semper magna, id varius magna.",
  "openHours": "Segunda a Sabado, 18h as 4h",
  "address": "Rua Rio Branco, 123",
  "phone": "21 1234-5678",
  "M4T": false,
  "photoUrl": "http://lorempixel.com/400/200/transport/",
  "created": "20-05-2016 12:30",
  "updated": null,
  "lat": "-22.904883",
  "lng": "-43.110548"
}
]
