{
  "restaurants": [
    {
      "id": 0,
      "title": "Future Communications Assistant",
      "center": "Polo Nataniel do Descoberto",
      "state": "MS",
      "city": "Albuquerque do Descoberto",
      "neighborhood": "Sirineu",
      "description": "Quia ullam et sunt nesciunt commodi repudiandae et.\nEaque omnis aspernatur delectus totam molestiae id commodi culpa cum.\nQuisquam omnis vitae neque sint quis et voluptas nihil rerum.\nNulla aut nihil.",
      "openHours": "",
      "address": "93075 Marcela Viela",
      "phone": "(15) 2090-4736",
      "M4T": true,
      "photoUrl": "http://lorempixel.com/640/480/sports",
      "created": "2015-08-25T19:05:37.981Z",
      "updated": "2015-08-12T12:22:09.272Z",
      "lat": -87.789,
      "lng": 127.7846
    },
    {
      "id": 1,
      "title": "Central Security Architect",
      "center": "Polo Xavier do Sul",
      "state": "PE",
      "city": "Vila Fabrício",
      "neighborhood": "Hugo",
      "description": "Et sunt repudiandae aperiam id saepe laboriosam praesentium nihil.\nArchitecto odio harum voluptates nihil nulla est.\nQuod et a alias atque quasi accusantium.\nEa assumenda architecto sed vel totam ut.\nNon qui ipsam quo quaerat enim.\nUt voluptatem vero.",
      "openHours": "",
      "address": "1845 Vitória Travessa",
      "phone": "(45) 29398-4383",
      "M4T": false,
      "photoUrl": "http://lorempixel.com/640/480/business",
      "created": "2015-05-07T07:07:41.452Z",
      "updated": "2015-10-01T03:25:38.497Z",
      "lat": -84.2284,
      "lng": 160.669
    },
    {
      "id": 2,
      "title": "Corporate Accountability Agent",
      "center": "Polo Município de Rafael de Nossa Senhora",
      "state": "RR",
      "city": "Moreira do Descoberto",
      "neighborhood": "Marli",
      "description": "Distinctio consectetur assumenda corrupti laborum error voluptas.\nUt est sit quisquam.\nEveniet voluptatem ipsa fuga consequatur eum minima debitis.\nCum quia dicta.\nQui ullam in et occaecati eum.\nSit ut velit aliquam aut.",
      "openHours": "",
      "address": "24359 Xavier Rodovia",
      "phone": "(74) 77956-1527",
      "M4T": true,
      "photoUrl": "http://lorempixel.com/640/480/animals",
      "created": "2015-09-10T02:07:29.336Z",
      "updated": "2015-07-25T00:31:23.343Z",
      "lat": -2.9928,
      "lng": -135.0777
    },
    {
      "id": 3,
      "title": "Chief Tactics Coordinator",
      "center": "Polo Danilo do Sul",
      "state": "RN",
      "city": "Grande Esther",
      "neighborhood": "Roberta",
      "description": "Cum consectetur et rerum veniam sit repellat similique tenetur.\nAnimi quod possimus quia reiciendis aliquid.\nIn quo quod culpa error dolorem nisi sapiente.\nLaborum minus quas rerum saepe.",
      "openHours": "",
      "address": "0236 Frederico Rodovia",
      "phone": "(33) 1066-4584",
      "M4T": false,
      "photoUrl": "http://lorempixel.com/640/480/people",
      "created": "2015-03-14T12:30:01.688Z",
      "updated": "2015-12-01T03:33:51.377Z",
      "lat": 80.4656,
      "lng": -95.8091
    },
    {
      "id": 4,
      "title": "National Research Assistant",
      "center": "Polo Grande Lucas do Descoberto",
      "state": "ES",
      "city": "Bruna do Descoberto",
      "neighborhood": "Alessandro",
      "description": "Accusantium quaerat illum omnis voluptatibus.\nPlaceat assumenda deserunt amet possimus doloribus adipisci.\nSint omnis praesentium explicabo quam.\nVoluptatum qui sed quo.\nAliquid debitis provident rerum odit perspiciatis ipsa quae laborum.\nNobis et cumque sunt.",
      "openHours": "",
      "address": "4728 Xavier Travessa",
      "phone": "+55 (28) 0183-0511",
      "M4T": false,
      "photoUrl": "http://lorempixel.com/640/480/people",
      "created": "2015-07-26T02:14:22.318Z",
      "updated": "2015-12-06T11:12:34.979Z",
      "lat": 59.2846,
      "lng": -121.4071
    },
    {
      "id": 5,
      "title": "National Functionality Specialist",
      "center": "Polo Batista do Norte",
      "state": "MA",
      "city": "Velha Fabrícia",
      "neighborhood": "Bruna",
      "description": "Voluptatem ut commodi autem neque dolore consequatur.\nQuisquam iure et rerum possimus aut.\nAut facilis sed.\nSaepe molestias incidunt ipsam sint quam eveniet.\nDolore ut explicabo quas maxime voluptatem.\nVoluptatem laborum et rerum sed alias praesentium illo.",
      "openHours": "",
      "address": "293 Saraiva Marginal",
      "phone": "+55 (75) 3339-4713",
      "M4T": true,
      "photoUrl": "http://lorempixel.com/640/480/cats",
      "created": "2015-12-31T10:38:17.564Z",
      "updated": "2015-07-10T18:00:47.762Z",
      "lat": -87.236,
      "lng": -145.6454
    },
    {
      "id": 6,
      "title": "Human Solutions Executive",
      "center": "Polo Alessandra do Descoberto",
      "state": "GO",
      "city": "Nogueira de Nossa Senhora",
      "neighborhood": "Vitória",
      "description": "Repudiandae aspernatur in commodi et non.\nNostrum similique dolorem rem.\nConsequatur quidem non molestias laborum architecto veniam excepturi.\nSuscipit eum autem.",
      "openHours": "",
      "address": "00504 Sílvia Rua",
      "phone": "+55 (98) 1153-4380",
      "M4T": false,
      "photoUrl": "http://lorempixel.com/640/480/nightlife",
      "created": "2015-12-14T22:07:39.079Z",
      "updated": "2015-08-24T16:34:48.804Z",
      "lat": 73.9895,
      "lng": 5.6045
    },
    {
      "id": 7,
      "title": "Human Response Assistant",
      "center": "Polo Costa do Sul",
      "state": "DF",
      "city": "Nova Natália do Sul",
      "neighborhood": "Núbia",
      "description": "Suscipit aliquid fugit est numquam inventore facilis quis.\nEligendi ducimus rem nihil voluptas illum ut tempore.\nNobis ducimus debitis et.\nMollitia eveniet reiciendis dicta laborum repellendus voluptas voluptatem.\nIure laboriosam quibusdam consequatur mollitia autem iste.",
      "openHours": "",
      "address": "139 Yuri Avenida",
      "phone": "(63) 3013-8586",
      "M4T": true,
      "photoUrl": "http://lorempixel.com/640/480/city",
      "created": "2015-10-07T11:59:15.484Z",
      "updated": "2015-08-22T20:38:57.671Z",
      "lat": 34.8859,
      "lng": 56.5664
    },
    {
      "id": 8,
      "title": "Investor Assurance Coordinator",
      "center": "Polo Batista do Norte",
      "state": "MA",
      "city": "Velha Fabrícia",
      "neighborhood": "Ricardo",
      "description": "Eveniet atque et recusandae sit sequi molestiae ea.\nFugit non cumque ducimus reiciendis eius quis veniam.\nPlaceat nam vitae eos eum repellat.\nIllo accusantium velit placeat optio et magnam qui.\nId porro labore.",
      "openHours": "",
      "address": "167 João Rua",
      "phone": "(55) 4201-5496",
      "M4T": false,
      "photoUrl": "http://lorempixel.com/640/480/abstract",
      "created": "2015-12-30T16:12:15.429Z",
      "updated": "2016-01-17T06:26:48.244Z",
      "lat": -58.8254,
      "lng": -126.55
    },
    {
      "id": 9,
      "title": "Global Accountability Developer",
      "center": "Polo Município de Karla",
      "state": "CE",
      "city": "Vila Suélen do Norte",
      "neighborhood": "Sirineu",
      "description": "Est harum quod at eveniet cumque ex et omnis eius.\nOccaecati numquam perspiciatis non sed magni et id quo aut.\nConsequatur quod saepe eos repudiandae a iure accusantium consequatur.\nFuga et velit omnis.",
      "openHours": "",
      "address": "60249 Braga Ponte",
      "phone": "(21) 41354-7518",
      "M4T": false,
      "photoUrl": "http://lorempixel.com/640/480/transport",
      "created": "2016-01-27T04:56:23.228Z",
      "updated": "2016-02-05T20:32:36.683Z",
      "lat": -16.3792,
      "lng": 33.1913
    },
    {
      "id": 10,
      "title": "Corporate Interactions Developer",
      "center": "Polo Velha Danilo",
      "state": "PB",
      "city": "Nova Natália",
      "neighborhood": "Márcia",
      "description": "Est et sunt laboriosam et alias nihil.\nDebitis aut dolorem quia ut ea quis est.\nRatione molestiae qui tempore necessitatibus aut magni.\nQuidem est incidunt nisi recusandae a aliquid.\nVoluptatum et ut illum quibusdam nihil expedita.\nEveniet necessitatibus ipsam.",
      "openHours": "",
      "address": "27980 Barros Avenida",
      "phone": "(44) 94689-1799",
      "M4T": false,
      "photoUrl": "http://lorempixel.com/640/480/fashion",
      "created": "2016-01-08T04:24:18.807Z",
      "updated": "2015-10-30T11:49:10.377Z",
      "lat": 76.6532,
      "lng": -161.3365
    },
    {
      "id": 11,
      "title": "Dynamic Quality Manager",
      "center": "Polo Danilo do Sul",
      "state": "RN",
      "city": "Grande Esther",
      "neighborhood": "Marcos",
      "description": "Ut atque ad.\nEum aut debitis ut quia eligendi.\nUt est minus dolore omnis voluptatibus aliquid aliquam expedita et.\nTempore corrupti quis voluptatum sapiente sed animi enim voluptatem consequatur.\nAut quia id deleniti commodi quis.\nRerum aut odit molestiae error quia.",
      "openHours": "",
      "address": "210 Júlio Rua",
      "phone": "(85) 3602-8293",
      "M4T": false,
      "photoUrl": "http://lorempixel.com/640/480/abstract",
      "created": "2015-07-04T23:14:30.353Z",
      "updated": "2015-08-11T14:19:27.209Z",
      "lat": -7.7211,
      "lng": 106.5067
    },
    {
      "id": 12,
      "title": "Product Identity Liason",
      "center": "Polo Vila Aline",
      "state": "RR",
      "city": "Fabrícia do Sul",
      "neighborhood": "Warley",
      "description": "Dolorum eveniet id optio voluptatem molestias esse.\nDistinctio repellat officiis enim debitis.\nSuscipit occaecati impedit libero totam omnis optio quas quam.\nEveniet hic similique velit adipisci.\nConsequuntur enim consequatur molestias voluptatem voluptas quo earum aut ut.",
      "openHours": "",
      "address": "40699 Silas Rodovia",
      "phone": "(56) 76582-6235",
      "M4T": false,
      "photoUrl": "http://lorempixel.com/640/480/business",
      "created": "2015-05-10T19:52:13.670Z",
      "updated": "2016-01-27T16:00:22.019Z",
      "lat": 1.1653,
      "lng": 157.3198
    },
    {
      "id": 13,
      "title": "Dynamic Marketing Administrator",
      "center": "Polo Moreira do Sul",
      "state": "DF",
      "city": "Batista de Nossa Senhora",
      "neighborhood": "Júlio",
      "description": "Facilis amet esse et et consequuntur aspernatur.\nQui magnam sint qui.\nQui neque voluptas qui et ut assumenda dolor aut.\nDucimus ad non quibusdam nisi hic rerum.\nFugit inventore ratione.",
      "openHours": "",
      "address": "49769 Yuri Rodovia",
      "phone": "(96) 72367-5591",
      "M4T": true,
      "photoUrl": "http://lorempixel.com/640/480/abstract",
      "created": "2015-07-24T07:46:04.814Z",
      "updated": "2015-07-15T20:25:50.852Z",
      "lat": -67.3393,
      "lng": -82.4823
    },
    {
      "id": 14,
      "title": "Dynamic Marketing Liason",
      "center": "Polo Velha Ofélia",
      "state": "AM",
      "city": "Município de Larissa do Norte",
      "neighborhood": "Elísio",
      "description": "Sint repellendus pariatur.\nUt labore animi velit minus.\nBlanditiis deleniti qui veritatis voluptatem distinctio qui ut cumque.",
      "openHours": "",
      "address": "58013 Reis Viela",
      "phone": "(44) 98430-0144",
      "M4T": true,
      "photoUrl": "http://lorempixel.com/640/480/cats",
      "created": "2015-03-16T17:17:32.203Z",
      "updated": "2015-11-10T12:16:18.653Z",
      "lat": 66.0687,
      "lng": -132.9501
    },
    {
      "id": 15,
      "title": "National Accountability Representative",
      "center": "Polo Batista do Norte",
      "state": "MA",
      "city": "Velha Fabrícia",
      "neighborhood": "Marcelo",
      "description": "Ad distinctio ut.\nDolores neque incidunt voluptas provident sit vel consectetur quidem cumque.\nConsequatur similique animi voluptate est.\nSimilique aut atque.",
      "openHours": "",
      "address": "435 Sílvia Travessa",
      "phone": "(82) 06616-0875",
      "M4T": false,
      "photoUrl": "http://lorempixel.com/640/480/technics",
      "created": "2016-02-22T01:38:13.598Z",
      "updated": "2016-01-29T18:25:39.143Z",
      "lat": 83.8488,
      "lng": -49.1358
    },
    {
      "id": 16,
      "title": "Chief Operations Developer",
      "center": "Polo Velha Frederico de Nossa Senhora",
      "state": "SP",
      "city": "Velha Yago do Sul",
      "neighborhood": "Júlio César",
      "description": "Rem distinctio molestiae vero laudantium facere iure quis molestiae.\nAccusantium magnam maiores iusto quasi iste quis sit.\nTotam possimus facere doloremque ut repellendus consequuntur.\nQuisquam consectetur dolores officia nostrum quidem inventore voluptas.\nConsequatur amet sunt.\nQuo debitis mollitia est numquam harum consequuntur magnam nesciunt.",
      "openHours": "",
      "address": "1436 Melo Viela",
      "phone": "(70) 2458-3434",
      "M4T": false,
      "photoUrl": "http://lorempixel.com/640/480/sports",
      "created": "2015-11-24T11:49:34.471Z",
      "updated": "2015-06-29T14:11:48.000Z",
      "lat": 18.244,
      "lng": 36.7715
    },
    {
      "id": 17,
      "title": "Dynamic Infrastructure Administrator",
      "center": "Polo Alessandra do Descoberto",
      "state": "GO",
      "city": "Nogueira de Nossa Senhora",
      "neighborhood": "Pablo",
      "description": "Et nostrum soluta.\nBlanditiis non delectus autem voluptatum sint voluptatibus sapiente temporibus ut.\nSit quae dolorem occaecati voluptate tenetur in ullam.\nOmnis facilis voluptatem nostrum quidem odio asperiores modi.",
      "openHours": "",
      "address": "9503 Macedo Travessa",
      "phone": "(95) 89122-9767",
      "M4T": true,
      "photoUrl": "http://lorempixel.com/640/480/technics",
      "created": "2015-12-20T05:14:47.667Z",
      "updated": "2015-06-13T20:55:17.986Z",
      "lat": 63.7227,
      "lng": -66.066
    },
    {
      "id": 18,
      "title": "Global Solutions Facilitator",
      "center": "Polo Município de Karla",
      "state": "CE",
      "city": "Vila Suélen do Norte",
      "neighborhood": "Elísio",
      "description": "Dolorem explicabo voluptatem sint rerum et.\nLaborum perferendis in in dolorem quis sint voluptates sed voluptatem.\nEt sit quia omnis doloremque asperiores sed aut incidunt.",
      "openHours": "",
      "address": "8007 Fábio Rua",
      "phone": "(92) 97764-5014",
      "M4T": true,
      "photoUrl": "http://lorempixel.com/640/480/animals",
      "created": "2015-03-11T15:14:04.371Z",
      "updated": "2015-05-22T14:18:46.896Z",
      "lat": -35.3207,
      "lng": -33.8783
    },
    {
      "id": 19,
      "title": "Product Factors Specialist",
      "center": "Polo Vila Aline",
      "state": "RR",
      "city": "Fabrícia do Sul",
      "neighborhood": "Natália",
      "description": "Voluptatem veniam nesciunt pariatur corrupti aliquid quae rerum perspiciatis officiis.\nVoluptatem aut rerum quis enim suscipit dolores quam.\nDolore eos quae consequuntur odio aut quo soluta nisi.\nEst laboriosam totam maiores minus neque dolores saepe voluptas perferendis.\nAut excepturi omnis nisi vero.\nVoluptatibus repudiandae earum corporis.",
      "openHours": "",
      "address": "8583 Braga Rua",
      "phone": "+55 (97) 3901-5974",
      "M4T": false,
      "photoUrl": "http://lorempixel.com/640/480/technics",
      "created": "2015-09-06T16:44:20.288Z",
      "updated": "2015-10-05T04:41:18.077Z",
      "lat": -23.8146,
      "lng": 9.069
    },
    {
      "id": 20,
      "title": "Global Accountability Manager",
      "center": "Polo Fabrícia do Sul",
      "state": "PE",
      "city": "Silva do Sul",
      "neighborhood": "Karla",
      "description": "Cupiditate est consectetur tenetur laudantium.\nNisi rem aliquid quas esse exercitationem tempore sit commodi qui.\nVoluptates eligendi rem.\nCorrupti rerum ab sint.\nIn animi commodi nesciunt quia dolores.",
      "openHours": "",
      "address": "001 Washington Alameda",
      "phone": "+55 (46) 1034-9897",
      "M4T": true,
      "photoUrl": "http://lorempixel.com/640/480/nightlife",
      "created": "2015-09-05T12:44:45.205Z",
      "updated": "2015-06-03T03:10:49.164Z",
      "lat": 21.1732,
      "lng": 169.5034
    },
    {
      "id": 21,
      "title": "Global Web Assistant",
      "center": "Polo Talita do Sul",
      "state": "PE",
      "city": "Grande Guilherme do Sul",
      "neighborhood": "Meire",
      "description": "Possimus quo ut incidunt molestias libero unde.\nDolore neque fugiat blanditiis aut quos reiciendis qui.\nNihil ea velit reiciendis ipsam consequatur.",
      "openHours": "",
      "address": "64554 Batista Viela",
      "phone": "(79) 91705-1075",
      "M4T": false,
      "photoUrl": "http://lorempixel.com/640/480/nature",
      "created": "2015-04-15T12:13:46.290Z",
      "updated": "2015-08-01T05:57:17.425Z",
      "lat": 66.4895,
      "lng": 130.1411
    },
    {
      "id": 22,
      "title": "Legacy Interactions Consultant",
      "center": "Polo Danilo do Sul",
      "state": "RN",
      "city": "Grande Esther",
      "neighborhood": "Warley",
      "description": "Perspiciatis recusandae ea fugit ipsam quo aspernatur enim sunt.\nMinus amet corrupti officiis dignissimos qui vero iste.\nDebitis non rem quam ducimus tempora quos maiores.\nAutem accusantium voluptas ad qui.",
      "openHours": "",
      "address": "05606 Pereira Rua",
      "phone": "(73) 8095-1353",
      "M4T": true,
      "photoUrl": "http://lorempixel.com/640/480/nightlife",
      "created": "2015-08-08T00:37:29.512Z",
      "updated": "2015-09-13T08:24:40.080Z",
      "lat": -61.0761,
      "lng": 105.0115
    },
    {
      "id": 23,
      "title": "Lead Metrics Analyst",
      "center": "Polo Grande Lucas do Descoberto",
      "state": "ES",
      "city": "Bruna do Descoberto",
      "neighborhood": "Víctor",
      "description": "Reprehenderit et error.\nEveniet sit ducimus sint.\nAut et perspiciatis culpa veniam suscipit dignissimos corporis et.",
      "openHours": "",
      "address": "854 Oliveira Viela",
      "phone": "(62) 3013-1637",
      "M4T": false,
      "photoUrl": "http://lorempixel.com/640/480/technics",
      "created": "2015-03-17T10:30:53.292Z",
      "updated": "2016-01-07T03:58:50.871Z",
      "lat": 75.9805,
      "lng": 58.0695
    },
    {
      "id": 24,
      "title": "Dynamic Functionality Administrator",
      "center": "Polo Vila Aline",
      "state": "RR",
      "city": "Fabrícia do Sul",
      "neighborhood": "Sílvia",
      "description": "Dolorem exercitationem ea nulla.\nQuibusdam inventore et.\nUt ipsum qui iste sit eveniet non.\nMagni rerum vel recusandae sapiente nesciunt voluptatibus non et.\nVoluptatem omnis et.\nAut blanditiis excepturi quia recusandae velit iure unde.",
      "openHours": "",
      "address": "72498 Víctor Rodovia",
      "phone": "+55 (42) 4689-2481",
      "M4T": true,
      "photoUrl": "http://lorempixel.com/640/480/transport",
      "created": "2015-11-27T15:28:50.711Z",
      "updated": "2015-03-24T20:31:23.124Z",
      "lat": -62.9221,
      "lng": -173.945
    },
    {
      "id": 25,
      "title": "Regional Directives Developer",
      "center": "Polo Yango do Sul",
      "state": "AM",
      "city": "Velha Nataniel do Descoberto",
      "neighborhood": "Heitor",
      "description": "Exercitationem adipisci itaque ut dolores dicta.\nQui eos maiores quas iste est porro quisquam officia pariatur.\nCorporis cum quis dignissimos ut ducimus.",
      "openHours": "",
      "address": "690 Rafael Alameda",
      "phone": "+55 (78) 0470-9609",
      "M4T": false,
      "photoUrl": "http://lorempixel.com/640/480/people",
      "created": "2016-01-20T17:58:59.846Z",
      "updated": "2015-07-14T09:56:39.700Z",
      "lat": 65.8506,
      "lng": 96.0409
    },
    {
      "id": 26,
      "title": "Central Communications Specialist",
      "center": "Polo Xavier do Sul",
      "state": "PE",
      "city": "Vila Fabrício",
      "neighborhood": "Aline",
      "description": "Id labore aperiam minus sint ut ut maiores enim.\nIn ex reprehenderit molestiae totam.\nHarum sequi molestias repudiandae fugiat nemo.\nEt aut nostrum facilis similique in placeat harum.\nEst harum velit.\nAmet beatae doloremque nesciunt minima illo in et autem.",
      "openHours": "",
      "address": "130 Nogueira Alameda",
      "phone": "+55 (02) 9267-4494",
      "M4T": true,
      "photoUrl": "http://lorempixel.com/640/480/nature",
      "created": "2015-04-05T13:25:51.916Z",
      "updated": "2015-09-20T06:22:19.779Z",
      "lat": 86.153,
      "lng": 151.2332
    },
    {
      "id": 27,
      "title": "Dynamic Web Manager",
      "center": "Polo Velha Danilo",
      "state": "PB",
      "city": "Nova Natália",
      "neighborhood": "Hugo",
      "description": "Deleniti reprehenderit numquam assumenda.\nSit dolores repellat dolorum.\nAssumenda ex voluptatem cupiditate accusamus totam illum dolores.\nCulpa quia fuga voluptatibus libero.\nVel iure aut fugiat aut cumque voluptates et facilis.\nEst cum consequuntur eos sit nostrum inventore amet pariatur.",
      "openHours": "",
      "address": "2135 Felícia Marginal",
      "phone": "(49) 8404-6621",
      "M4T": false,
      "photoUrl": "http://lorempixel.com/640/480/people",
      "created": "2015-07-17T14:49:18.211Z",
      "updated": "2015-11-04T11:24:18.280Z",
      "lat": -51.3053,
      "lng": 160.7015
    },
    {
      "id": 28,
      "title": "Direct Branding Technician",
      "center": "Polo Melo de Nossa Senhora",
      "state": "SC",
      "city": "Santos do Descoberto",
      "neighborhood": "Danilo",
      "description": "Optio ipsa voluptatibus quia impedit ut consequatur in rerum qui.\nEnim blanditiis ducimus ea quis quam vel autem ut.\nQui repudiandae mollitia quidem ea deserunt omnis.\nAccusamus iure recusandae quis at aut.\nSit omnis assumenda illo ratione molestiae accusantium vitae magni.\nAb sed eum dicta magni odio occaecati quia provident consequatur.",
      "openHours": "",
      "address": "31562 Barros Viela",
      "phone": "(12) 83374-9842",
      "M4T": false,
      "photoUrl": "http://lorempixel.com/640/480/technics",
      "created": "2016-01-07T05:20:04.124Z",
      "updated": "2015-12-06T20:48:52.476Z",
      "lat": -39.1611,
      "lng": 144.8085
    },
    {
      "id": 29,
      "title": "Regional Infrastructure Orchestrator",
      "center": "Polo Grande Lucas do Descoberto",
      "state": "ES",
      "city": "Bruna do Descoberto",
      "neighborhood": "Elísio",
      "description": "Pariatur explicabo voluptas nobis est aut.\nEt labore quibusdam rerum.\nHarum adipisci sit voluptatem porro id.\nExpedita non voluptatibus.\nUt harum est placeat rerum velit iste fuga.",
      "openHours": "",
      "address": "126 Paulo Rodovia",
      "phone": "(63) 23022-7291",
      "M4T": true,
      "photoUrl": "http://lorempixel.com/640/480/technics",
      "created": "2015-07-25T06:53:18.030Z",
      "updated": "2015-08-22T01:59:10.749Z",
      "lat": 12.6971,
      "lng": 13.8713
    },
    {
      "id": 30,
      "title": "Investor Division Developer",
      "center": "Polo Danilo do Sul",
      "state": "RN",
      "city": "Grande Esther",
      "neighborhood": "Feliciano",
      "description": "Voluptate molestiae consequuntur non.\nReiciendis quaerat deleniti laboriosam consequuntur consequatur a voluptatem.\nEveniet quidem repellat ut aut.\nAut ducimus harum illo quisquam in est aliquam et vero.\nQuo dolores facilis rerum impedit voluptates.\nTenetur magnam ea et saepe.",
      "openHours": "",
      "address": "3047 Marli Ponte",
      "phone": "(73) 49156-1413",
      "M4T": true,
      "photoUrl": "http://lorempixel.com/640/480/animals",
      "created": "2016-02-10T12:25:17.134Z",
      "updated": "2015-11-16T20:21:43.932Z",
      "lat": 69.9892,
      "lng": -73.8442
    },
    {
      "id": 31,
      "title": "Corporate Markets Coordinator",
      "center": "Polo Xavier do Sul",
      "state": "PE",
      "city": "Vila Fabrício",
      "neighborhood": "Natália",
      "description": "Est molestias voluptatem id ut.\nOdit vitae ipsum eveniet cum magni nemo sint impedit.\nVel quod pariatur voluptas saepe rem maxime possimus odit.\nReprehenderit magni laboriosam quod veritatis optio sed qui vero.\nQuis consequatur repellat temporibus necessitatibus.\nQuia ex nulla unde est explicabo.",
      "openHours": "",
      "address": "81514 Norberto Ponte",
      "phone": "(69) 0781-1642",
      "M4T": true,
      "photoUrl": "http://lorempixel.com/640/480/city",
      "created": "2015-11-08T06:38:04.021Z",
      "updated": "2015-07-26T07:03:40.393Z",
      "lat": 38.1712,
      "lng": -141.0721
    },
    {
      "id": 32,
      "title": "Senior Integration Developer",
      "center": "Polo Melo de Nossa Senhora",
      "state": "SC",
      "city": "Santos do Descoberto",
      "neighborhood": "Alessandra",
      "description": "Quod vero dolorum.\nFacere aut aut ipsa aspernatur culpa rerum.\nMagnam dolore quo enim dolorem consectetur ipsa nam.\nQuas doloribus numquam molestiae.\nAnimi quas ducimus ex id.",
      "openHours": "",
      "address": "7136 Silva Viela",
      "phone": "(79) 8907-7895",
      "M4T": false,
      "photoUrl": "http://lorempixel.com/640/480/nature",
      "created": "2015-06-09T11:10:32.249Z",
      "updated": "2015-05-28T04:03:49.645Z",
      "lat": 24.6451,
      "lng": -32.6963
    },
    {
      "id": 33,
      "title": "Direct Research Producer",
      "center": "Polo Município de Rafael de Nossa Senhora",
      "state": "RR",
      "city": "Moreira do Descoberto",
      "neighborhood": "Warley",
      "description": "At accusamus corporis laboriosam maiores vel sunt et consectetur.\nNemo harum atque quia et cum omnis corrupti.\nEst impedit iure laborum expedita.\nCupiditate vero recusandae fugiat.\nRecusandae et enim aut deleniti numquam sed et et error.\nAut quo est quaerat hic sed ratione quam quo.",
      "openHours": "",
      "address": "4264 Macedo Marginal",
      "phone": "+55 (58) 1752-4790",
      "M4T": false,
      "photoUrl": "http://lorempixel.com/640/480/city",
      "created": "2015-06-04T20:07:19.549Z",
      "updated": "2015-05-03T13:32:31.258Z",
      "lat": -61.9448,
      "lng": 32.4705
    },
    {
      "id": 34,
      "title": "District Tactics Consultant",
      "center": "Polo Xavier do Sul",
      "state": "PE",
      "city": "Vila Fabrício",
      "neighborhood": "Júlio",
      "description": "Perspiciatis sint ut.\nConsectetur dolorem quia aliquid explicabo ullam eos in at corporis.\nOfficiis dolores enim culpa est minus eum incidunt.",
      "openHours": "",
      "address": "5394 Nataniel Travessa",
      "phone": "(73) 87837-7647",
      "M4T": true,
      "photoUrl": "http://lorempixel.com/640/480/food",
      "created": "2015-12-14T17:10:35.431Z",
      "updated": "2015-04-20T19:07:00.818Z",
      "lat": 55.6072,
      "lng": 109.4734
    },
    {
      "id": 35,
      "title": "Direct Metrics Assistant",
      "center": "Polo Município de Rafael de Nossa Senhora",
      "state": "RR",
      "city": "Moreira do Descoberto",
      "neighborhood": "Felícia",
      "description": "Cum quia sit voluptatibus voluptas nihil.\nNihil sit aspernatur provident nostrum.\nNam rerum explicabo provident.",
      "openHours": "",
      "address": "896 Fabrício Rodovia",
      "phone": "+55 (56) 8647-4717",
      "M4T": true,
      "photoUrl": "http://lorempixel.com/640/480/animals",
      "created": "2016-03-01T19:32:28.507Z",
      "updated": "2015-10-17T03:10:15.472Z",
      "lat": -53.422,
      "lng": -106.4504
    },
    {
      "id": 36,
      "title": "Dynamic Branding Assistant",
      "center": "Polo Vila João",
      "state": "MA",
      "city": "Moreira do Sul",
      "neighborhood": "Félix",
      "description": "Animi pariatur praesentium sunt explicabo doloribus deserunt et et.\nVoluptas tenetur necessitatibus.\nConsectetur quibusdam illo qui pariatur blanditiis omnis delectus porro amet.\nExpedita adipisci eos est voluptatem dolorum qui explicabo.",
      "openHours": "",
      "address": "92211 Lorena Marginal",
      "phone": "(78) 5052-8307",
      "M4T": true,
      "photoUrl": "http://lorempixel.com/640/480/food",
      "created": "2015-04-07T14:50:41.529Z",
      "updated": "2016-02-17T00:03:54.966Z",
      "lat": 31.5969,
      "lng": -32.3197
    },
    {
      "id": 37,
      "title": "National Identity Supervisor",
      "center": "Polo Alessandra do Descoberto",
      "state": "GO",
      "city": "Nogueira de Nossa Senhora",
      "neighborhood": "Meire",
      "description": "Id sapiente quia sit dicta omnis reiciendis quibusdam.\nQuidem et unde dolores repellat corporis velit.\nRepudiandae consequatur est in.\nUt asperiores veritatis pariatur omnis quo voluptas.",
      "openHours": "",
      "address": "8877 Ricardo Avenida",
      "phone": "(13) 23874-5782",
      "M4T": false,
      "photoUrl": "http://lorempixel.com/640/480/nature",
      "created": "2016-03-07T10:14:36.823Z",
      "updated": "2015-09-19T14:18:02.392Z",
      "lat": -58.4251,
      "lng": 108.904
    },
    {
      "id": 38,
      "title": "Forward Usability Specialist",
      "center": "Polo Danilo do Sul",
      "state": "RN",
      "city": "Grande Esther",
      "neighborhood": "Júlio César",
      "description": "Et est autem exercitationem consequatur et esse et libero velit.\nDignissimos aut expedita.\nDucimus sit facere aut modi ut.\nConsequatur sequi aspernatur veritatis.\nAccusamus adipisci provident aspernatur minima assumenda ut.",
      "openHours": "",
      "address": "04569 Fabrício Viela",
      "phone": "(69) 8878-8387",
      "M4T": false,
      "photoUrl": "http://lorempixel.com/640/480/animals",
      "created": "2016-02-13T12:31:38.255Z",
      "updated": "2016-01-04T15:22:35.510Z",
      "lat": -19.4907,
      "lng": -70.8068
    },
    {
      "id": 39,
      "title": "Senior Program Coordinator",
      "center": "Polo Yango do Sul",
      "state": "AM",
      "city": "Velha Nataniel do Descoberto",
      "neighborhood": "Marli",
      "description": "Aut possimus dolore illum blanditiis odio.\nAut vel incidunt quisquam.\nVelit unde fugit ut quis delectus veritatis et.\nUt non ut sint voluptates totam aperiam.\nMolestias suscipit sunt ut quod eveniet qui modi officia excepturi.\nNesciunt rerum officiis nostrum similique quibusdam qui accusantium corporis quis.",
      "openHours": "",
      "address": "3333 Moraes Rua",
      "phone": "(90) 0534-9027",
      "M4T": true,
      "photoUrl": "http://lorempixel.com/640/480/fashion",
      "created": "2015-05-20T01:43:31.086Z",
      "updated": "2015-09-10T07:57:16.532Z",
      "lat": -67.4945,
      "lng": 102.3697
    },
    {
      "id": 40,
      "title": "District Communications Planner",
      "center": "Polo Município de Rafael de Nossa Senhora",
      "state": "RR",
      "city": "Moreira do Descoberto",
      "neighborhood": "Fábio",
      "description": "Illum ad earum provident et soluta pariatur nihil neque quasi.\nOdit maxime dolores animi non laboriosam dolorem suscipit a voluptates.\nEt ut voluptatem cum.\nQuia et id consequuntur.",
      "openHours": "",
      "address": "575 Silas Travessa",
      "phone": "(91) 2941-7110",
      "M4T": true,
      "photoUrl": "http://lorempixel.com/640/480/business",
      "created": "2016-02-02T23:50:17.948Z",
      "updated": "2015-12-29T01:26:38.150Z",
      "lat": -27.9447,
      "lng": 31.35
    },
    {
      "id": 41,
      "title": "Corporate Optimization Officer",
      "center": "Polo Grande Alexandre",
      "state": "PB",
      "city": "Reis do Sul",
      "neighborhood": "Félix",
      "description": "Minima quaerat ab eveniet delectus dignissimos.\nUt aut rerum qui et ratione.\nNihil non omnis.\nIure vero rerum repudiandae iste quidem.\nQui nostrum rem illo aperiam.\nEst aut eum alias quo aut.",
      "openHours": "",
      "address": "7073 Vitória Avenida",
      "phone": "(53) 5543-9652",
      "M4T": false,
      "photoUrl": "http://lorempixel.com/640/480/abstract",
      "created": "2015-06-28T07:10:25.305Z",
      "updated": "2015-07-02T08:38:29.859Z",
      "lat": 9.8391,
      "lng": 56.669
    },
    {
      "id": 42,
      "title": "Future Mobility Specialist",
      "center": "Polo Município de Marcela de Nossa Senhora",
      "state": "RJ",
      "city": "Vila Júlio",
      "neighborhood": "Antônio",
      "description": "Architecto aut qui laudantium recusandae temporibus voluptatem fuga.\nIllum quia quia officia earum dolorem quae ducimus veritatis.\nPariatur assumenda non fuga ut impedit eveniet.\nAspernatur laudantium veritatis aut perspiciatis.\nVitae fugit sit.\nQuo omnis enim.",
      "openHours": "",
      "address": "47303 Carvalho Avenida",
      "phone": "+55 (90) 7459-8076",
      "M4T": false,
      "photoUrl": "http://lorempixel.com/640/480/nature",
      "created": "2016-02-20T16:16:57.970Z",
      "updated": "2015-09-23T16:42:47.843Z",
      "lat": -71.7919,
      "lng": -12.5207
    },
    {
      "id": 43,
      "title": "District Integration Architect",
      "center": "Polo Município de Marcela de Nossa Senhora",
      "state": "RJ",
      "city": "Vila Júlio",
      "neighborhood": "Guilherme",
      "description": "Est omnis aut atque nihil iusto sed blanditiis.\nInventore reprehenderit sequi ullam rerum voluptatem et.\nIusto et odit.\nArchitecto culpa aut nesciunt id nostrum.\nIn repudiandae est sit aspernatur et iusto corporis neque cupiditate.\nSit voluptatem eum placeat tempore.",
      "openHours": "",
      "address": "60317 Nogueira Ponte",
      "phone": "(46) 05601-2012",
      "M4T": true,
      "photoUrl": "http://lorempixel.com/640/480/food",
      "created": "2016-02-08T06:31:14.373Z",
      "updated": "2015-12-03T02:11:36.948Z",
      "lat": -33.684,
      "lng": -156.5353
    },
    {
      "id": 44,
      "title": "Forward Quality Assistant",
      "center": "Polo Vila João",
      "state": "MA",
      "city": "Moreira do Sul",
      "neighborhood": "Isabela",
      "description": "Ipsa amet maiores velit exercitationem veritatis omnis totam fugiat.\nIllum debitis placeat delectus fuga modi.\nUt omnis rerum est sequi qui.\nQui vero illo corrupti ut qui.",
      "openHours": "",
      "address": "31803 Macedo Marginal",
      "phone": "(87) 68265-1034",
      "M4T": false,
      "photoUrl": "http://lorempixel.com/640/480/nightlife",
      "created": "2015-04-11T03:52:16.599Z",
      "updated": "2016-01-15T06:20:33.050Z",
      "lat": -77.3213,
      "lng": 33.5414
    },
    {
      "id": 45,
      "title": "Global Solutions Associate",
      "center": "Polo Vila João",
      "state": "MA",
      "city": "Moreira do Sul",
      "neighborhood": "Víctor",
      "description": "Facere pariatur ex officia culpa neque tenetur et in blanditiis.\nMagni dolore eum iusto tempore consectetur odit incidunt sed.\nFacere et beatae officiis libero aliquam numquam cum modi.",
      "openHours": "",
      "address": "0937 Batista Travessa",
      "phone": "(34) 73728-4072",
      "M4T": false,
      "photoUrl": "http://lorempixel.com/640/480/fashion",
      "created": "2015-08-07T20:45:52.859Z",
      "updated": "2015-11-23T01:17:00.510Z",
      "lat": 73.9956,
      "lng": -3.7003
    },
    {
      "id": 46,
      "title": "Central Usability Administrator",
      "center": "Polo Fabrícia do Sul",
      "state": "PE",
      "city": "Silva do Sul",
      "neighborhood": "Alexandre",
      "description": "Sunt deserunt autem nisi quia officiis consequatur.\nCorporis commodi et impedit voluptates dolores.\nFuga dolor dolores laudantium consequuntur voluptas expedita distinctio est.",
      "openHours": "",
      "address": "717 Nogueira Ponte",
      "phone": "(59) 06168-2425",
      "M4T": false,
      "photoUrl": "http://lorempixel.com/640/480/sports",
      "created": "2015-03-26T13:47:18.654Z",
      "updated": "2015-10-23T07:30:02.722Z",
      "lat": -54.9729,
      "lng": 133.7371
    },
    {
      "id": 47,
      "title": "Product Factors Developer",
      "center": "Polo Yango do Sul",
      "state": "AM",
      "city": "Velha Nataniel do Descoberto",
      "neighborhood": "Vitória",
      "description": "Iste nobis neque id.\nEx suscipit temporibus quidem numquam.\nVoluptates corporis eum architecto.",
      "openHours": "",
      "address": "96647 Pereira Ponte",
      "phone": "(64) 6770-1939",
      "M4T": false,
      "photoUrl": "http://lorempixel.com/640/480/food",
      "created": "2015-10-07T16:35:19.452Z",
      "updated": "2015-03-19T19:46:07.909Z",
      "lat": -65.2757,
      "lng": 159.8787
    },
    {
      "id": 48,
      "title": "Internal Program Agent",
      "center": "Polo Alessandra do Descoberto",
      "state": "GO",
      "city": "Nogueira de Nossa Senhora",
      "neighborhood": "Pedro",
      "description": "Fugit est sapiente possimus est dolor autem sint et.\nQuos voluptatem quis cupiditate ut sunt ut.\nVoluptatem dignissimos sequi deleniti et tempore ea dolores.",
      "openHours": "",
      "address": "826 Carlos Avenida",
      "phone": "(16) 00196-8857",
      "M4T": false,
      "photoUrl": "http://lorempixel.com/640/480/nature",
      "created": "2016-02-24T15:46:37.394Z",
      "updated": "2015-07-15T02:53:46.167Z",
      "lat": -32.3342,
      "lng": 38.8689
    },
    {
      "id": 49,
      "title": "Human Interactions Strategist",
      "center": "Polo Fabrícia do Sul",
      "state": "PE",
      "city": "Silva do Sul",
      "neighborhood": "Talita",
      "description": "Cumque repellat id.\nCorporis quos quod velit magni non.\nNemo explicabo alias qui velit.",
      "openHours": "",
      "address": "327 Frederico Marginal",
      "phone": "(09) 8826-4668",
      "M4T": true,
      "photoUrl": "http://lorempixel.com/640/480/animals",
      "created": "2015-05-29T11:56:16.962Z",
      "updated": "2015-04-11T09:48:09.932Z",
      "lat": 14.4262,
      "lng": 22.973
    },
    {
      "id": 50,
      "title": "Lead Functionality Manager",
      "center": "Polo Barros do Descoberto",
      "state": "RJ",
      "city": "Velha Marli",
      "neighborhood": "Alessandro",
      "description": "Et non facilis architecto ea voluptatum officia consectetur.\nEum quis debitis quo perferendis placeat ducimus culpa in et.\nRerum et aut ut fugiat molestiae.",
      "openHours": "",
      "address": "8745 Saraiva Travessa",
      "phone": "+55 (41) 1909-4845",
      "M4T": true,
      "photoUrl": "http://lorempixel.com/640/480/transport",
      "created": "2015-12-22T13:17:13.958Z",
      "updated": "2015-06-04T01:31:00.407Z",
      "lat": -80.2757,
      "lng": 161.55
    },
    {
      "id": 51,
      "title": "Customer Paradigm Associate",
      "center": "Polo Rafael de Nossa Senhora",
      "state": "RN",
      "city": "Santos do Descoberto",
      "neighborhood": "Fábio",
      "description": "Pariatur quia et sed.\nNon natus rerum.\nQui sit voluptatem natus doloremque nihil quae.\nImpedit est voluptatem et ut ut aut quo.\nEst voluptas earum numquam.",
      "openHours": "",
      "address": "9749 Moraes Rodovia",
      "phone": "(53) 52707-6850",
      "M4T": true,
      "photoUrl": "http://lorempixel.com/640/480/city",
      "created": "2015-10-08T14:05:00.148Z",
      "updated": "2015-05-24T05:28:50.976Z",
      "lat": 43.5111,
      "lng": -63.9001
    },
    {
      "id": 52,
      "title": "Dynamic Operations Supervisor",
      "center": "Polo Talita do Sul",
      "state": "PE",
      "city": "Grande Guilherme do Sul",
      "neighborhood": "Lorena",
      "description": "Illum quidem sapiente aliquam quaerat placeat voluptates.\nVoluptatem eaque aut dolores quia aut.\nBeatae aspernatur iure consequatur voluptatem quam.\nNihil nemo vitae laboriosam molestiae tempore blanditiis incidunt.",
      "openHours": "",
      "address": "3585 Melo Avenida",
      "phone": "(59) 1495-5053",
      "M4T": false,
      "photoUrl": "http://lorempixel.com/640/480/nature",
      "created": "2015-08-26T14:01:39.306Z",
      "updated": "2015-12-11T05:01:37.193Z",
      "lat": -69.8961,
      "lng": 103.1661
    },
    {
      "id": 53,
      "title": "Direct Communications Producer",
      "center": "Polo Costa do Sul",
      "state": "DF",
      "city": "Nova Natália do Sul",
      "neighborhood": "Gúbio",
      "description": "Asperiores commodi laborum blanditiis sed assumenda tempore aperiam omnis.\nNam fugit voluptas et tempore doloremque molestiae eveniet sunt.\nLaboriosam rerum quidem saepe at.\nDicta est qui quasi.",
      "openHours": "",
      "address": "16470 Pereira Ponte",
      "phone": "(75) 7846-1080",
      "M4T": false,
      "photoUrl": "http://lorempixel.com/640/480/animals",
      "created": "2015-04-28T11:14:32.575Z",
      "updated": "2015-11-24T00:49:22.846Z",
      "lat": -0.3925,
      "lng": 65.0427
    },
    {
      "id": 54,
      "title": "Regional Identity Producer",
      "center": "Polo Velha Frederico de Nossa Senhora",
      "state": "SP",
      "city": "Velha Yago do Sul",
      "neighborhood": "Eduarda",
      "description": "Amet qui consequatur porro dolorem.\nAut incidunt nemo perferendis modi omnis adipisci in sit voluptatem.\nQuasi architecto quaerat et eum minus pariatur.\nMolestiae eum quae soluta voluptatem a.\nExpedita illo laborum repellat fugit quis autem harum deserunt repudiandae.\nSed et nostrum delectus molestiae.",
      "openHours": "",
      "address": "6034 Braga Avenida",
      "phone": "(17) 73914-0126",
      "M4T": false,
      "photoUrl": "http://lorempixel.com/640/480/people",
      "created": "2015-07-25T03:11:57.901Z",
      "updated": "2015-09-21T13:41:53.011Z",
      "lat": -48.6771,
      "lng": 24.8413
    },
    {
      "id": 55,
      "title": "Dynamic Infrastructure Consultant",
      "center": "Polo Velha Frederico de Nossa Senhora",
      "state": "SP",
      "city": "Velha Yago do Sul",
      "neighborhood": "Yago",
      "description": "Ea aut non quibusdam optio quis.\nLibero ut doloremque nihil ullam ipsam qui et.\nRecusandae similique eaque consequatur quidem hic tempora nam.\nRepellendus voluptatum eum fuga voluptatem autem modi eos.\nAut quibusdam facilis.\nAutem et doloribus nostrum asperiores.",
      "openHours": "",
      "address": "15300 Elísio Ponte",
      "phone": "+55 (60) 5877-8014",
      "M4T": false,
      "photoUrl": "http://lorempixel.com/640/480/sports",
      "created": "2015-05-17T19:30:02.145Z",
      "updated": "2015-03-10T12:31:34.115Z",
      "lat": 39.4102,
      "lng": 88.4525
    },
    {
      "id": 56,
      "title": "Human Paradigm Planner",
      "center": "Polo Fabrícia do Sul",
      "state": "PE",
      "city": "Silva do Sul",
      "neighborhood": "Elísio",
      "description": "Quae deleniti nam veniam et nisi corporis magni dolorem.\nNon nobis quo eum dolores.\nIpsum omnis aliquam libero rerum occaecati dignissimos voluptas voluptatem corrupti.\nPerferendis voluptatem quia et quam sapiente numquam repudiandae.\nArchitecto repudiandae nulla.",
      "openHours": "",
      "address": "7162 Pablo Avenida",
      "phone": "(37) 1349-7890",
      "M4T": false,
      "photoUrl": "http://lorempixel.com/640/480/nightlife",
      "created": "2015-09-27T10:52:18.113Z",
      "updated": "2015-10-08T05:02:02.167Z",
      "lat": 75.9544,
      "lng": 4.0539
    },
    {
      "id": 57,
      "title": "Chief Interactions Designer",
      "center": "Polo Grande Alexandre",
      "state": "PB",
      "city": "Reis do Sul",
      "neighborhood": "Tertuliano",
      "description": "Ipsa numquam sit cumque odit ipsum quia harum est.\nOmnis est eveniet vel reiciendis eum.\nSoluta saepe quidem.\nNostrum atque quam doloribus et voluptatem.",
      "openHours": "",
      "address": "143 Moreira Ponte",
      "phone": "(27) 0439-3576",
      "M4T": false,
      "photoUrl": "http://lorempixel.com/640/480/nature",
      "created": "2015-09-24T20:42:24.750Z",
      "updated": "2016-01-12T20:23:49.684Z",
      "lat": -5.5713,
      "lng": 74.7694
    },
    {
      "id": 58,
      "title": "Central Assurance Facilitator",
      "center": "Polo Nataniel do Descoberto",
      "state": "MS",
      "city": "Albuquerque do Descoberto",
      "neighborhood": "Breno",
      "description": "Perferendis ut debitis excepturi esse.\nUt et incidunt dignissimos nulla ea similique.\nAlias qui inventore quae fuga nihil sint ea.\nImpedit aut laboriosam deserunt.",
      "openHours": "",
      "address": "99941 Cecília Rodovia",
      "phone": "+55 (14) 3047-8901",
      "M4T": false,
      "photoUrl": "http://lorempixel.com/640/480/people",
      "created": "2015-04-12T23:17:55.623Z",
      "updated": "2015-07-19T20:19:47.027Z",
      "lat": 61.4347,
      "lng": -85.8768
    },
    {
      "id": 59,
      "title": "Principal Implementation Representative",
      "center": "Polo Melo de Nossa Senhora",
      "state": "SC",
      "city": "Santos do Descoberto",
      "neighborhood": "Fabiano",
      "description": "Sed omnis delectus error et molestiae.\nQuisquam et tenetur aperiam dolorum aut a sint.\nUt voluptatem similique dolor et enim.",
      "openHours": "",
      "address": "6266 Franco Avenida",
      "phone": "+55 (64) 8247-2092",
      "M4T": true,
      "photoUrl": "http://lorempixel.com/640/480/abstract",
      "created": "2015-10-01T08:16:18.994Z",
      "updated": "2016-02-24T18:24:22.077Z",
      "lat": -81.7928,
      "lng": 127.1551
    },
    {
      "id": 60,
      "title": "Central Response Engineer",
      "center": "Polo Vila Aline",
      "state": "RR",
      "city": "Fabrícia do Sul",
      "neighborhood": "Salvador",
      "description": "Consequuntur voluptate voluptatum atque ipsa iure vel quia.\nItaque eligendi aut.\nVoluptate quaerat magnam delectus et ab consequatur nulla dolorem.\nEst cumque omnis.",
      "openHours": "",
      "address": "4010 Pereira Rodovia",
      "phone": "(86) 24403-4677",
      "M4T": false,
      "photoUrl": "http://lorempixel.com/640/480/nightlife",
      "created": "2015-12-10T16:36:00.008Z",
      "updated": "2015-08-21T12:59:16.421Z",
      "lat": -2.3775,
      "lng": 42.5238
    },
    {
      "id": 61,
      "title": "Human Branding Manager",
      "center": "Polo Fabrícia do Sul",
      "state": "PE",
      "city": "Silva do Sul",
      "neighborhood": "Júlio César",
      "description": "Aut ad itaque nobis vitae nam enim laborum dicta.\nError aperiam at ut.\nNatus eum totam consequatur.",
      "openHours": "",
      "address": "274 Núbia Travessa",
      "phone": "(26) 83916-9471",
      "M4T": true,
      "photoUrl": "http://lorempixel.com/640/480/people",
      "created": "2015-06-04T22:18:26.462Z",
      "updated": "2015-09-08T07:16:34.139Z",
      "lat": 52.1906,
      "lng": -139.5532
    },
    {
      "id": 62,
      "title": "Principal Program Developer",
      "center": "Polo Vila Aline",
      "state": "RR",
      "city": "Fabrícia do Sul",
      "neighborhood": "Hélio",
      "description": "Tempora consequatur voluptatem voluptas dolorem veniam mollitia repudiandae totam optio.\nDolorem veritatis facilis qui et sunt mollitia sed.\nDolorum consequatur odio aut.\nEt non error sequi a cum.\nA sint deleniti sit aut non ab.\nExplicabo qui iusto.",
      "openHours": "",
      "address": "7053 Sara Rodovia",
      "phone": "+55 (89) 2439-7485",
      "M4T": true,
      "photoUrl": "http://lorempixel.com/640/480/nightlife",
      "created": "2015-06-13T01:39:02.656Z",
      "updated": "2015-07-17T10:29:18.675Z",
      "lat": -9.5976,
      "lng": 64.3073
    },
    {
      "id": 63,
      "title": "Lead Quality Specialist",
      "center": "Polo Rafael de Nossa Senhora",
      "state": "RN",
      "city": "Santos do Descoberto",
      "neighborhood": "Cecília",
      "description": "Minima fuga quod est impedit.\nLaudantium sunt illo cumque soluta voluptatem.\nSapiente sit optio cum dicta expedita.",
      "openHours": "",
      "address": "901 Fabrícia Travessa",
      "phone": "(72) 00744-4619",
      "M4T": false,
      "photoUrl": "http://lorempixel.com/640/480/sports",
      "created": "2015-05-20T04:28:15.552Z",
      "updated": "2015-03-22T13:28:09.295Z",
      "lat": 69.068,
      "lng": -20.0411
    },
    {
      "id": 64,
      "title": "Global Factors Engineer",
      "center": "Polo Moreira de Nossa Senhora",
      "state": "AM",
      "city": "Oliveira do Descoberto",
      "neighborhood": "Júlio César",
      "description": "Beatae suscipit deserunt maiores commodi quibusdam odit animi.\nDolorem quia iusto tempora est porro aliquam eaque.\nSunt aut dolor ex consectetur est.\nConsectetur aliquam nihil dicta temporibus eum sunt omnis unde.",
      "openHours": "",
      "address": "95438 Xavier Travessa",
      "phone": "(89) 38541-3499",
      "M4T": false,
      "photoUrl": "http://lorempixel.com/640/480/nature",
      "created": "2015-06-19T06:53:13.248Z",
      "updated": "2015-09-19T14:44:30.656Z",
      "lat": 32.4799,
      "lng": -117.8213
    },
    {
      "id": 65,
      "title": "Regional Solutions Liason",
      "center": "Polo Velha Ofélia",
      "state": "AM",
      "city": "Município de Larissa do Norte",
      "neighborhood": "Alessandra",
      "description": "Fuga ab qui deserunt dicta quaerat velit error similique.\nVoluptatem qui aut beatae voluptatibus iure.\nNumquam qui enim quam voluptate blanditiis.\nMaxime dolores porro omnis ea veritatis distinctio nesciunt.\nDolores et dolor quia minus delectus.",
      "openHours": "",
      "address": "5939 Lorena Rua",
      "phone": "(28) 17659-6847",
      "M4T": true,
      "photoUrl": "http://lorempixel.com/640/480/transport",
      "created": "2015-10-26T21:28:01.573Z",
      "updated": "2015-03-11T10:09:31.826Z",
      "lat": -53.617,
      "lng": 27.116
    },
    {
      "id": 66,
      "title": "Internal Creative Analyst",
      "center": "Polo Costa do Sul",
      "state": "DF",
      "city": "Nova Natália do Sul",
      "neighborhood": "Júlio César",
      "description": "Tenetur atque sed deserunt repudiandae eos dolore quia debitis.\nLaborum quia quaerat recusandae et atque facere qui.\nMinus voluptatem et in culpa sed.\nIste nostrum est maiores dicta doloremque nisi autem.\nMagnam fugiat repellat sed id recusandae consequatur ex.",
      "openHours": "",
      "address": "9741 Barros Marginal",
      "phone": "(69) 66870-7698",
      "M4T": false,
      "photoUrl": "http://lorempixel.com/640/480/nightlife",
      "created": "2015-12-15T18:24:21.585Z",
      "updated": "2015-07-30T19:26:59.562Z",
      "lat": -36.1375,
      "lng": 130.9491
    },
    {
      "id": 67,
      "title": "Human Assurance Representative",
      "center": "Polo Nataniel do Descoberto",
      "state": "MS",
      "city": "Albuquerque do Descoberto",
      "neighborhood": "Vitória",
      "description": "Voluptatibus perspiciatis ipsa accusantium doloremque unde mollitia molestiae.\nRepellat ea eos ipsa aliquam voluptates voluptate aut.\nOccaecati velit labore iusto iure corrupti ipsa.\nEt in minus.\nQui vel odit tenetur minima sed a rerum sint ipsam.",
      "openHours": "",
      "address": "470 Souza Viela",
      "phone": "(80) 9241-3935",
      "M4T": false,
      "photoUrl": "http://lorempixel.com/640/480/business",
      "created": "2016-01-02T02:27:37.296Z",
      "updated": "2015-03-16T17:21:39.085Z",
      "lat": -86.6203,
      "lng": 121.6338
    },
    {
      "id": 68,
      "title": "Customer Web Associate",
      "center": "Polo Melo do Norte",
      "state": "GO",
      "city": "Albuquerque do Descoberto",
      "neighborhood": "Paula",
      "description": "Consequatur omnis vel reiciendis velit.\nAut voluptas eius temporibus reiciendis facilis.\nUt quis non nihil quaerat id.\nUt omnis labore cupiditate facilis vero.\nEsse quibusdam aut.",
      "openHours": "",
      "address": "6785 Larissa Rua",
      "phone": "+55 (76) 8229-6344",
      "M4T": false,
      "photoUrl": "http://lorempixel.com/640/480/transport",
      "created": "2015-10-20T01:01:34.388Z",
      "updated": "2016-01-28T11:19:43.972Z",
      "lat": 15.2701,
      "lng": -177.7595
    },
    {
      "id": 69,
      "title": "Internal Branding Supervisor",
      "center": "Polo Rafael de Nossa Senhora",
      "state": "RN",
      "city": "Santos do Descoberto",
      "neighborhood": "Suélen",
      "description": "Qui temporibus aut voluptatem non eum.\nUt vel quod ipsa maiores cupiditate culpa.\nAssumenda vitae illum.\nLibero vero et cumque.\nVoluptatem et voluptas voluptate id nesciunt omnis id.\nSunt doloremque numquam inventore et et accusamus facere nam et.",
      "openHours": "",
      "address": "449 Meire Viela",
      "phone": "+55 (45) 0660-7155",
      "M4T": false,
      "photoUrl": "http://lorempixel.com/640/480/animals",
      "created": "2016-01-16T11:35:26.570Z",
      "updated": "2015-11-23T07:05:30.411Z",
      "lat": 10.7106,
      "lng": 115.8042
    },
    {
      "id": 70,
      "title": "Principal Metrics Liason",
      "center": "Polo Moreira do Sul",
      "state": "DF",
      "city": "Batista de Nossa Senhora",
      "neighborhood": "Maria",
      "description": "Voluptatem natus amet magnam odio doloribus.\nDolorem corrupti tempora ipsam ipsa magnam iure qui id.\nRerum dolorem et nihil quod rem omnis quasi fugit quia.\nId quo ratione vel culpa omnis dolores consequatur magni sint.\nEsse dolorem aliquam in totam quas tempora quod et.",
      "openHours": "",
      "address": "2050 Washington Rua",
      "phone": "(53) 0727-4920",
      "M4T": false,
      "photoUrl": "http://lorempixel.com/640/480/nature",
      "created": "2015-10-25T02:31:24.536Z",
      "updated": "2015-07-26T05:41:48.074Z",
      "lat": 10.012,
      "lng": -170.7715
    },
    {
      "id": 71,
      "title": "Global Security Executive",
      "center": "Polo Melo do Norte",
      "state": "GO",
      "city": "Albuquerque do Descoberto",
      "neighborhood": "Márcia",
      "description": "Officia voluptas neque dolor.\nDolorem et dicta cum iusto.\nAsperiores architecto sit commodi deleniti consequatur et et incidunt et.\nMaxime qui tempore.\nQuod minus illum eum quisquam.\nRepellat laborum asperiores veritatis dicta omnis doloribus sunt.",
      "openHours": "",
      "address": "588 Pereira Alameda",
      "phone": "(22) 43292-9106",
      "M4T": true,
      "photoUrl": "http://lorempixel.com/640/480/abstract",
      "created": "2015-03-16T07:34:42.948Z",
      "updated": "2015-09-11T20:29:06.124Z",
      "lat": 19.9614,
      "lng": 138.141
    },
    {
      "id": 72,
      "title": "Future Group Administrator",
      "center": "Polo Município de Marcela de Nossa Senhora",
      "state": "RJ",
      "city": "Vila Júlio",
      "neighborhood": "Norberto",
      "description": "Asperiores quia sed consequatur iusto dolorem.\nAperiam incidunt quia dolor vel.\nAut iusto aut voluptatem ipsum ea accusamus enim rerum.\nEum a vel voluptatem in.\nId laborum quos in.\nQuia vel expedita sint aut unde eum.",
      "openHours": "",
      "address": "811 Norberto Alameda",
      "phone": "(14) 9282-9272",
      "M4T": false,
      "photoUrl": "http://lorempixel.com/640/480/fashion",
      "created": "2015-08-17T20:50:54.423Z",
      "updated": "2015-04-11T12:31:10.822Z",
      "lat": 69.3714,
      "lng": -16.2838
    },
    {
      "id": 73,
      "title": "Customer Operations Developer",
      "center": "Polo Talita do Sul",
      "state": "PE",
      "city": "Grande Guilherme do Sul",
      "neighborhood": "Raul",
      "description": "Pariatur assumenda asperiores nisi ad non.\nAut eius est odio.\nSed accusamus ad.\nExcepturi delectus vel voluptas dolores.",
      "openHours": "",
      "address": "0215 Braga Travessa",
      "phone": "+55 (31) 2100-3041",
      "M4T": false,
      "photoUrl": "http://lorempixel.com/640/480/nature",
      "created": "2015-05-04T21:51:54.040Z",
      "updated": "2015-08-02T19:35:14.696Z",
      "lat": -88.9147,
      "lng": -5.5279
    },
    {
      "id": 74,
      "title": "Human Research Associate",
      "center": "Polo Grande Alexandre",
      "state": "PB",
      "city": "Reis do Sul",
      "neighborhood": "Mércia",
      "description": "Quia illo impedit quo sunt officia a nemo laboriosam.\nAut et sit odit provident.\nUnde a id commodi autem natus tenetur velit.\nAutem iusto ad iure recusandae.",
      "openHours": "",
      "address": "18485 Vicente Rua",
      "phone": "(19) 8049-2071",
      "M4T": false,
      "photoUrl": "http://lorempixel.com/640/480/food",
      "created": "2015-11-23T14:13:10.422Z",
      "updated": "2015-10-18T11:48:49.765Z",
      "lat": 88.3214,
      "lng": -135.9186
    },
    {
      "id": 75,
      "title": "Dynamic Division Director",
      "center": "Polo Nova Natália de Nossa Senhora",
      "state": "SC",
      "city": "Marli do Descoberto",
      "neighborhood": "Lorraine",
      "description": "Esse delectus aliquid aut.\nLaborum voluptatibus ut voluptas minima autem.\nFacilis unde ducimus.\nEst quia ipsa eum maiores animi.\nEt architecto sit ad.\nQuia sapiente ipsum nobis quia quidem expedita.",
      "openHours": "",
      "address": "420 Sílvia Rodovia",
      "phone": "+55 (55) 1956-4679",
      "M4T": true,
      "photoUrl": "http://lorempixel.com/640/480/cats",
      "created": "2015-06-07T18:16:43.804Z",
      "updated": "2015-06-23T03:15:01.723Z",
      "lat": 37.5422,
      "lng": 125.0242
    },
    {
      "id": 76,
      "title": "Central Factors Administrator",
      "center": "Polo Moreira de Nossa Senhora",
      "state": "AM",
      "city": "Oliveira do Descoberto",
      "neighborhood": "Eduardo",
      "description": "Asperiores pariatur dolores aut animi.\nMolestiae et doloribus dicta qui minus maxime necessitatibus qui fugiat.\nPraesentium non sed.\nDelectus nihil incidunt.\nNesciunt fugiat iste non ut optio voluptatibus laudantium nemo aliquid.",
      "openHours": "",
      "address": "081 Fabrício Ponte",
      "phone": "(06) 83701-8664",
      "M4T": false,
      "photoUrl": "http://lorempixel.com/640/480/nature",
      "created": "2015-11-06T14:30:47.098Z",
      "updated": "2015-07-04T06:20:13.944Z",
      "lat": 55.0065,
      "lng": 82.4826
    },
    {
      "id": 77,
      "title": "Investor Research Officer",
      "center": "Polo Barros do Descoberto",
      "state": "RJ",
      "city": "Velha Marli",
      "neighborhood": "Bruna",
      "description": "Incidunt dolorem at dolor non illum error.\nSed id ab maiores perspiciatis.\nEt id ratione error temporibus aliquid inventore facere non.",
      "openHours": "",
      "address": "2883 Antônio Alameda",
      "phone": "(09) 7262-3282",
      "M4T": true,
      "photoUrl": "http://lorempixel.com/640/480/transport",
      "created": "2015-05-15T14:41:25.698Z",
      "updated": "2015-06-13T23:20:04.236Z",
      "lat": 78.5062,
      "lng": -127.4509
    },
    {
      "id": 78,
      "title": "Dynamic Program Associate",
      "center": "Polo Município de Rafael de Nossa Senhora",
      "state": "RR",
      "city": "Moreira do Descoberto",
      "neighborhood": "Vicente",
      "description": "Et ex itaque quibusdam omnis accusantium accusamus ad quia.\nEum ullam sed nemo voluptate voluptas consectetur autem dolor.\nRerum officiis nihil nesciunt possimus quo sed sequi labore.\nCorrupti ut sapiente facilis et odit fugit natus.",
      "openHours": "",
      "address": "66284 Silva Rodovia",
      "phone": "+55 (70) 6619-0221",
      "M4T": false,
      "photoUrl": "http://lorempixel.com/640/480/cats",
      "created": "2015-10-14T14:35:21.030Z",
      "updated": "2015-11-26T05:31:45.851Z",
      "lat": 16.1214,
      "lng": 1.0374
    },
    {
      "id": 79,
      "title": "Direct Operations Engineer",
      "center": "Polo Vila Lorena",
      "state": "PB",
      "city": "Albuquerque do Descoberto",
      "neighborhood": "Larissa",
      "description": "Placeat impedit et.\nConsequatur adipisci iure cupiditate rerum tempore repudiandae ipsum nihil veniam.\nQui ut assumenda quia dolores provident rerum et cupiditate optio.\nUt occaecati maxime laudantium quas repellendus possimus iure reiciendis.",
      "openHours": "",
      "address": "83235 Salvador Ponte",
      "phone": "(72) 26376-9570",
      "M4T": true,
      "photoUrl": "http://lorempixel.com/640/480/transport",
      "created": "2015-08-17T09:27:43.978Z",
      "updated": "2016-01-13T10:37:28.422Z",
      "lat": -4.9915,
      "lng": 107.9837
    },
    {
      "id": 80,
      "title": "Investor Applications Planner",
      "center": "Polo Yango do Sul",
      "state": "AM",
      "city": "Velha Nataniel do Descoberto",
      "neighborhood": "Sílvia",
      "description": "Mollitia aliquid modi aut.\nUt et facilis et aliquid.\nPariatur voluptas ut alias magni autem iusto asperiores autem sunt.\nVoluptas et deserunt non architecto voluptatum.",
      "openHours": "",
      "address": "02542 Pereira Alameda",
      "phone": "+55 (10) 6605-7536",
      "M4T": false,
      "photoUrl": "http://lorempixel.com/640/480/business",
      "created": "2016-01-19T11:20:18.128Z",
      "updated": "2015-09-27T22:23:32.280Z",
      "lat": 1.5492,
      "lng": -13.3589
    },
    {
      "id": 81,
      "title": "Dynamic Accounts Planner",
      "center": "Polo Costa do Sul",
      "state": "DF",
      "city": "Nova Natália do Sul",
      "neighborhood": "Marli",
      "description": "Et aliquid voluptatem.\nDolor quibusdam alias.\nPorro dolorum esse quae sit rerum inventore enim quis et.",
      "openHours": "",
      "address": "5683 Yago Marginal",
      "phone": "(28) 05661-4938",
      "M4T": false,
      "photoUrl": "http://lorempixel.com/640/480/technics",
      "created": "2015-04-01T17:39:46.395Z",
      "updated": "2015-04-04T01:14:13.801Z",
      "lat": -77.0995,
      "lng": -35.8976
    },
    {
      "id": 82,
      "title": "Regional Web Associate",
      "center": "Polo Moreira de Nossa Senhora",
      "state": "AM",
      "city": "Oliveira do Descoberto",
      "neighborhood": "Carlos",
      "description": "Labore molestiae ut porro.\nVero ullam non itaque.\nOdit omnis in nisi et.\nRepellendus dolorum aut ducimus quibusdam.\nLabore quisquam praesentium exercitationem harum nihil aut nulla excepturi.\nTempore praesentium et.",
      "openHours": "",
      "address": "339 Oliveira Ponte",
      "phone": "(59) 8613-7017",
      "M4T": true,
      "photoUrl": "http://lorempixel.com/640/480/technics",
      "created": "2015-08-01T03:57:50.639Z",
      "updated": "2015-09-15T00:47:41.608Z",
      "lat": -68.4246,
      "lng": 37.3566
    },
    {
      "id": 83,
      "title": "Senior Branding Manager",
      "center": "Polo Velha Ofélia",
      "state": "AM",
      "city": "Município de Larissa do Norte",
      "neighborhood": "Pedro",
      "description": "Blanditiis optio quisquam consequatur.\nA molestias eaque voluptatem ducimus voluptatem enim.\nQuis repellendus quod soluta quas est explicabo et quo.",
      "openHours": "",
      "address": "1777 Moreira Viela",
      "phone": "(91) 2634-6119",
      "M4T": true,
      "photoUrl": "http://lorempixel.com/640/480/fashion",
      "created": "2015-07-30T00:04:52.516Z",
      "updated": "2016-03-02T13:29:54.940Z",
      "lat": -16.1461,
      "lng": -8.179
    },
    {
      "id": 84,
      "title": "National Factors Engineer",
      "center": "Polo Velha Danilo",
      "state": "PB",
      "city": "Nova Natália",
      "neighborhood": "Isabel",
      "description": "Ut vel atque excepturi.\nEsse aut omnis soluta quae ut harum quia commodi.\nIllo praesentium ad et dolore placeat molestiae.\nUt quibusdam ab consequatur quaerat et.\nConsequatur est perspiciatis et dignissimos et.",
      "openHours": "",
      "address": "641 Pablo Avenida",
      "phone": "(04) 36924-2202",
      "M4T": false,
      "photoUrl": "http://lorempixel.com/640/480/people",
      "created": "2015-04-03T05:04:44.923Z",
      "updated": "2015-06-01T04:12:48.316Z",
      "lat": -5.9883,
      "lng": -57.8968
    },
    {
      "id": 85,
      "title": "Corporate Interactions Representative",
      "center": "Polo Vila Lorena",
      "state": "PB",
      "city": "Albuquerque do Descoberto",
      "neighborhood": "Eduardo",
      "description": "Sunt dolor facere.\nPerspiciatis dolorum laboriosam voluptatem deserunt.\nVoluptates labore ut velit perferendis voluptatem aliquid.\nSed et exercitationem recusandae sed quos eaque.\nQuos voluptate ad consequuntur et temporibus similique voluptatibus quia velit.",
      "openHours": "",
      "address": "886 Carvalho Rodovia",
      "phone": "(89) 40031-8869",
      "M4T": false,
      "photoUrl": "http://lorempixel.com/640/480/people",
      "created": "2016-01-25T09:52:59.824Z",
      "updated": "2015-12-07T22:27:49.732Z",
      "lat": -39.3849,
      "lng": -2.7106
    },
    {
      "id": 86,
      "title": "Legacy Identity Analyst",
      "center": "Polo Velha Washington",
      "state": "PB",
      "city": "Moreira do Descoberto",
      "neighborhood": "Felícia",
      "description": "Eaque nisi enim dolorem.\nVoluptatem ab nihil nesciunt delectus.\nOdio reiciendis velit voluptas voluptates quisquam sed.\nVel distinctio id.",
      "openHours": "",
      "address": "264 Souza Alameda",
      "phone": "(05) 22394-2075",
      "M4T": true,
      "photoUrl": "http://lorempixel.com/640/480/cats",
      "created": "2015-07-11T13:06:02.648Z",
      "updated": "2015-07-03T13:57:20.243Z",
      "lat": 22.9656,
      "lng": 14.5447
    },
    {
      "id": 87,
      "title": "Internal Factors Director",
      "center": "Polo Silva de Nossa Senhora",
      "state": "PE",
      "city": "Nova Fábio",
      "neighborhood": "Paula",
      "description": "Vel id aut consequatur fuga.\nPraesentium qui molestias laudantium est voluptatem voluptatem quia deleniti.\nSimilique qui modi.\nUnde cupiditate itaque placeat et.\nNon aut quas laudantium.\nConsectetur tenetur rerum.",
      "openHours": "",
      "address": "75180 Sílvia Viela",
      "phone": "(14) 2125-2830",
      "M4T": false,
      "photoUrl": "http://lorempixel.com/640/480/city",
      "created": "2015-03-29T20:18:11.123Z",
      "updated": "2015-04-30T14:44:29.151Z",
      "lat": -75.4253,
      "lng": -35.3864
    },
    {
      "id": 88,
      "title": "Corporate Infrastructure Analyst",
      "center": "Polo Vila Lorena",
      "state": "PB",
      "city": "Albuquerque do Descoberto",
      "neighborhood": "Guilherme",
      "description": "Omnis ipsa quasi quibusdam.\nLaboriosam est non.\nRepellat quas voluptatem enim odio expedita sint.",
      "openHours": "",
      "address": "29349 Lucas Viela",
      "phone": "+55 (98) 6905-7463",
      "M4T": true,
      "photoUrl": "http://lorempixel.com/640/480/sports",
      "created": "2015-03-26T02:29:18.970Z",
      "updated": "2015-05-12T21:56:23.974Z",
      "lat": 16.0127,
      "lng": 37.1776
    },
    {
      "id": 89,
      "title": "Lead Program Technician",
      "center": "Polo Vila Lorena",
      "state": "PB",
      "city": "Albuquerque do Descoberto",
      "neighborhood": "Larissa",
      "description": "Perferendis rerum optio officiis.\nLibero occaecati nihil.\nSed libero quia voluptatem aliquid ea ut vel porro.",
      "openHours": "",
      "address": "0933 Braga Viela",
      "phone": "(02) 5758-9029",
      "M4T": true,
      "photoUrl": "http://lorempixel.com/640/480/sports",
      "created": "2015-10-07T01:27:45.105Z",
      "updated": "2015-10-17T11:35:35.472Z",
      "lat": -69.475,
      "lng": -36.7216
    },
    {
      "id": 90,
      "title": "International Communications Executive",
      "center": "Polo Fabrícia do Sul",
      "state": "PE",
      "city": "Silva do Sul",
      "neighborhood": "Frederico",
      "description": "Consequuntur voluptatum repellat sint omnis at consequatur qui.\nEa modi quia maxime et eius.\nMinima dolor quis.\nSaepe aliquid ipsa culpa molestiae praesentium sit quasi.\nCumque labore porro.\nExercitationem voluptas eius.",
      "openHours": "",
      "address": "7004 Alessandro Viela",
      "phone": "(62) 19876-0169",
      "M4T": true,
      "photoUrl": "http://lorempixel.com/640/480/cats",
      "created": "2015-04-10T12:41:51.429Z",
      "updated": "2015-03-22T22:43:59.816Z",
      "lat": -73.7202,
      "lng": -48.1881
    },
    {
      "id": 91,
      "title": "Customer Mobility Designer",
      "center": "Polo Xavier do Sul",
      "state": "PE",
      "city": "Vila Fabrício",
      "neighborhood": "Carla",
      "description": "Nihil doloremque quo eligendi quos harum.\nMolestiae dolor ut et ab dolores.\nDeserunt in distinctio.\nQui voluptas quo voluptatibus illo recusandae at et est est.\nNatus commodi ipsum qui voluptatum ipsa deleniti.",
      "openHours": "",
      "address": "79827 Melo Alameda",
      "phone": "(01) 4863-6314",
      "M4T": true,
      "photoUrl": "http://lorempixel.com/640/480/abstract",
      "created": "2015-07-31T23:50:49.465Z",
      "updated": "2015-06-09T23:52:02.076Z",
      "lat": -44.2755,
      "lng": -30.7132
    },
    {
      "id": 92,
      "title": "Legacy Brand Engineer",
      "center": "Polo Vila João",
      "state": "MA",
      "city": "Moreira do Sul",
      "neighborhood": "Gustavo",
      "description": "Ratione voluptatem non iste debitis nihil cumque.\nMagnam voluptatem fugit magni optio delectus voluptates.\nRepudiandae quo voluptas non ab.\nReiciendis provident omnis inventore fugiat.",
      "openHours": "",
      "address": "874 Santos Ponte",
      "phone": "(07) 51908-1763",
      "M4T": false,
      "photoUrl": "http://lorempixel.com/640/480/people",
      "created": "2015-09-07T22:49:46.927Z",
      "updated": "2015-03-27T16:48:18.239Z",
      "lat": 77.8492,
      "lng": 158.3299
    },
    {
      "id": 93,
      "title": "Product Metrics Architect",
      "center": "Polo Município de Rafael de Nossa Senhora",
      "state": "RR",
      "city": "Moreira do Descoberto",
      "neighborhood": "Suélen",
      "description": "Consectetur veniam molestias praesentium quo.\nIllum optio sequi adipisci.\nConsequatur eos at ea.\nIusto est accusamus itaque eos voluptatum sed.\nQuia amet dolorem labore enim architecto facere.",
      "openHours": "",
      "address": "329 Albuquerque Alameda",
      "phone": "(83) 37742-0306",
      "M4T": true,
      "photoUrl": "http://lorempixel.com/640/480/sports",
      "created": "2015-07-12T18:18:25.274Z",
      "updated": "2015-10-05T23:45:03.301Z",
      "lat": -1.9978,
      "lng": 173.0377
    },
    {
      "id": 94,
      "title": "Dynamic Communications Planner",
      "center": "Polo Talita do Sul",
      "state": "PE",
      "city": "Grande Guilherme do Sul",
      "neighborhood": "Felícia",
      "description": "Nesciunt labore dignissimos officia.\nSit placeat repellat delectus necessitatibus eius et rerum est dignissimos.\nUllam occaecati aut est cupiditate reprehenderit est.\nVoluptates molestiae non sint repellendus sunt repellat omnis vel temporibus.\nUt ex est quod vero sint nemo.\nEarum ullam quod nihil et sed quo.",
      "openHours": "",
      "address": "16926 Moreira Travessa",
      "phone": "(76) 57124-4071",
      "M4T": false,
      "photoUrl": "http://lorempixel.com/640/480/technics",
      "created": "2016-01-31T03:40:39.768Z",
      "updated": "2015-04-17T23:44:17.987Z",
      "lat": 22.6029,
      "lng": -71.3642
    },
    {
      "id": 95,
      "title": "Forward Branding Director",
      "center": "Polo Barros do Descoberto",
      "state": "RJ",
      "city": "Velha Marli",
      "neighborhood": "Joana",
      "description": "Molestiae dolore doloremque eum laborum aut eum.\nExcepturi voluptas consequatur qui deleniti ab.\nQuia dolores est quam corrupti architecto voluptatum magni.\nMolestiae earum modi quia.",
      "openHours": "",
      "address": "52507 Víctor Rua",
      "phone": "(99) 21706-5879",
      "M4T": false,
      "photoUrl": "http://lorempixel.com/640/480/nightlife",
      "created": "2015-09-26T23:37:50.272Z",
      "updated": "2015-12-11T13:08:08.892Z",
      "lat": -3.1341,
      "lng": 166.7634
    },
    {
      "id": 96,
      "title": "International Directives Specialist",
      "center": "Polo Município de Karla",
      "state": "CE",
      "city": "Vila Suélen do Norte",
      "neighborhood": "Danilo",
      "description": "Inventore enim est repudiandae beatae in ad esse.\nDelectus ex dolorem laboriosam ut placeat.\nLabore numquam ad quo accusantium commodi ea hic.",
      "openHours": "",
      "address": "0772 Alexandre Marginal",
      "phone": "(67) 1115-1384",
      "M4T": true,
      "photoUrl": "http://lorempixel.com/640/480/cats",
      "created": "2015-06-29T12:38:49.104Z",
      "updated": "2015-04-05T06:51:05.633Z",
      "lat": -85.2516,
      "lng": -154.3258
    },
    {
      "id": 97,
      "title": "Direct Response Director",
      "center": "Polo Rafael de Nossa Senhora",
      "state": "RN",
      "city": "Santos do Descoberto",
      "neighborhood": "João",
      "description": "Autem sed sint rerum voluptate.\nEt perferendis consequatur possimus laboriosam sed id assumenda sunt.\nQuisquam aut velit et minima.\nQuae sapiente est maiores ut unde suscipit.",
      "openHours": "",
      "address": "7349 Yuri Marginal",
      "phone": "+55 (22) 2436-4065",
      "M4T": true,
      "photoUrl": "http://lorempixel.com/640/480/food",
      "created": "2015-04-07T08:28:55.338Z",
      "updated": "2015-08-02T04:14:32.349Z",
      "lat": 67.428,
      "lng": 52.3752
    },
    {
      "id": 98,
      "title": "Investor Functionality Facilitator",
      "center": "Polo Yango do Sul",
      "state": "AM",
      "city": "Velha Nataniel do Descoberto",
      "neighborhood": "Warley",
      "description": "Voluptatem voluptatem dolorem.\nRerum impedit asperiores.\nCupiditate rerum corrupti porro minus molestiae excepturi impedit sed.",
      "openHours": "",
      "address": "547 Margarida Rua",
      "phone": "+55 (00) 1712-3899",
      "M4T": true,
      "photoUrl": "http://lorempixel.com/640/480/business",
      "created": "2016-01-30T23:25:32.777Z",
      "updated": "2015-10-04T03:25:42.894Z",
      "lat": -3.3674,
      "lng": -138.4927
    },
    {
      "id": 99,
      "title": "Legacy Usability Engineer",
      "center": "Polo Silva de Nossa Senhora",
      "state": "PE",
      "city": "Nova Fábio",
      "neighborhood": "Eduarda",
      "description": "Delectus consectetur ex quasi nihil quaerat et eius dignissimos sed.\nDolorum aut voluptatibus placeat quasi et.\nSoluta a ea maxime eum est molestiae ea.\nRepellendus et tempore eligendi.\nNesciunt expedita quia velit qui hic inventore odio minus in.\nBlanditiis omnis libero consequatur alias eveniet qui nihil ab.",
      "openHours": "",
      "address": "318 Barros Rodovia",
      "phone": "(25) 80214-5720",
      "M4T": true,
      "photoUrl": "http://lorempixel.com/640/480/sports",
      "created": "2015-04-22T15:12:12.976Z",
      "updated": "2016-02-14T22:35:36.617Z",
      "lat": -65.1287,
      "lng": 83.623
    },
    {
      "id": 100,
      "title": "Corporate Configuration Executive",
      "center": "Polo Grande Alexandre",
      "state": "PB",
      "city": "Reis do Sul",
      "neighborhood": "Gúbio",
      "description": "Accusantium commodi est.\nVoluptatem impedit dolor qui veritatis et nihil quam.\nConsequatur aperiam consequuntur.\nDucimus aliquam et veritatis eius.\nOdit distinctio iste non eos vel placeat voluptatibus enim.",
      "openHours": "",
      "address": "4110 Oliveira Avenida",
      "phone": "(10) 15613-8682",
      "M4T": false,
      "photoUrl": "http://lorempixel.com/640/480/city",
      "created": "2015-05-10T10:08:58.652Z",
      "updated": "2016-02-29T19:01:37.441Z",
      "lat": -74.7944,
      "lng": -92.5856
    },
    {
      "id": 101,
      "title": "Chief Program Officer",
      "center": "Polo Município de Marcela de Nossa Senhora",
      "state": "RJ",
      "city": "Vila Júlio",
      "neighborhood": "Gustavo",
      "description": "Et mollitia accusantium animi est commodi sint dignissimos non vel.\nPossimus quam vel ad magnam debitis.\nNon vel debitis sint necessitatibus provident iure quia et.\nVoluptate ipsa mollitia molestiae et ipsam.",
      "openHours": "",
      "address": "876 Alexandre Rua",
      "phone": "+55 (64) 5025-7884",
      "M4T": false,
      "photoUrl": "http://lorempixel.com/640/480/abstract",
      "created": "2015-08-11T11:36:19.487Z",
      "updated": "2015-06-13T07:11:53.650Z",
      "lat": 5.3969,
      "lng": -176.1343
    },
    {
      "id": 102,
      "title": "Product Response Manager",
      "center": "Polo Talita do Sul",
      "state": "PE",
      "city": "Grande Guilherme do Sul",
      "neighborhood": "Mércia",
      "description": "Aut dolor quia qui tempore ipsum.\nIpsam occaecati quia enim expedita.\nAut eveniet sint dolor nulla dicta.\nTempora itaque quas eum recusandae totam praesentium amet facilis quia.",
      "openHours": "",
      "address": "7086 Batista Rua",
      "phone": "(66) 08525-8304",
      "M4T": true,
      "photoUrl": "http://lorempixel.com/640/480/transport",
      "created": "2015-07-26T20:12:22.863Z",
      "updated": "2015-08-09T02:40:57.852Z",
      "lat": 48.009,
      "lng": 113.8379
    },
    {
      "id": 103,
      "title": "National Data Designer",
      "center": "Polo Fabrícia do Sul",
      "state": "PE",
      "city": "Silva do Sul",
      "neighborhood": "Fabrício",
      "description": "Id nemo reprehenderit fuga reiciendis quo necessitatibus et.\nAutem cumque magnam architecto reiciendis animi velit.\nDeserunt perferendis maxime alias reprehenderit cumque explicabo molestias ut.\nEos sint repellendus sunt placeat vel nulla.\nNon molestiae enim aut vero id.\nAliquam iste ea nulla.",
      "openHours": "",
      "address": "41739 Costa Ponte",
      "phone": "+55 (96) 9724-3783",
      "M4T": true,
      "photoUrl": "http://lorempixel.com/640/480/sports",
      "created": "2015-08-19T15:51:48.963Z",
      "updated": "2015-12-08T04:29:55.449Z",
      "lat": -49.5565,
      "lng": -144.6531
    },
    {
      "id": 104,
      "title": "Lead Program Administrator",
      "center": "Polo Moreira de Nossa Senhora",
      "state": "AM",
      "city": "Oliveira do Descoberto",
      "neighborhood": "Marcela",
      "description": "Saepe quia at.\nEt nesciunt quibusdam et impedit quam voluptatem.\nLibero molestias voluptas magni at qui atque quia impedit.\nRecusandae libero rerum velit.",
      "openHours": "",
      "address": "8724 Elísio Rua",
      "phone": "+55 (98) 0171-4796",
      "M4T": true,
      "photoUrl": "http://lorempixel.com/640/480/business",
      "created": "2015-03-26T11:15:40.623Z",
      "updated": "2015-06-25T20:00:24.851Z",
      "lat": 7.3323,
      "lng": -92.3944
    },
    {
      "id": 105,
      "title": "Legacy Branding Supervisor",
      "center": "Polo Melo do Norte",
      "state": "GO",
      "city": "Albuquerque do Descoberto",
      "neighborhood": "Suélen",
      "description": "Omnis voluptatem unde nesciunt minus quos et cumque.\nAd ab cupiditate.\nEt quo voluptatem voluptatem aliquam ipsam omnis eum quibusdam.\nHarum neque quis dolorem nulla minus aut.\nAut qui voluptas in.\nSunt numquam sunt atque optio nihil sint soluta ullam error.",
      "openHours": "",
      "address": "4451 Nogueira Travessa",
      "phone": "(85) 13035-8876",
      "M4T": false,
      "photoUrl": "http://lorempixel.com/640/480/transport",
      "created": "2015-03-24T01:00:34.200Z",
      "updated": "2015-11-07T07:25:27.554Z",
      "lat": 26.8726,
      "lng": 89.5462
    },
    {
      "id": 106,
      "title": "Dynamic Operations Representative",
      "center": "Polo Batista do Norte",
      "state": "MA",
      "city": "Velha Fabrícia",
      "neighborhood": "Meire",
      "description": "Debitis nostrum rem quia aut unde.\nReprehenderit ab id placeat omnis repellat.\nOptio consequatur aut.\nCulpa nam quidem accusamus.\nEligendi ut est qui illo est quibusdam quia libero.\nAmet non eos culpa numquam voluptatum.",
      "openHours": "",
      "address": "2896 Barros Ponte",
      "phone": "(85) 93238-4995",
      "M4T": false,
      "photoUrl": "http://lorempixel.com/640/480/technics",
      "created": "2015-04-28T21:12:35.637Z",
      "updated": "2015-06-07T20:41:49.945Z",
      "lat": 77.9168,
      "lng": 48.628
    },
    {
      "id": 107,
      "title": "Customer Solutions Consultant",
      "center": "Polo Batista do Norte",
      "state": "MA",
      "city": "Velha Fabrícia",
      "neighborhood": "Marcelo",
      "description": "Consequatur repudiandae provident excepturi earum dolorem consequuntur.\nSit dolores ipsam eos.\nEst et quasi.\nNecessitatibus dignissimos voluptas earum est ratione.",
      "openHours": "",
      "address": "7121 Oliveira Rodovia",
      "phone": "(25) 89679-8786",
      "M4T": true,
      "photoUrl": "http://lorempixel.com/640/480/sports",
      "created": "2015-09-06T09:01:18.722Z",
      "updated": "2015-05-04T17:31:34.826Z",
      "lat": -7.8217,
      "lng": -92.7197
    },
    {
      "id": 108,
      "title": "Corporate Data Architect",
      "center": "Polo Velha Ofélia",
      "state": "AM",
      "city": "Município de Larissa do Norte",
      "neighborhood": "Isabel",
      "description": "Dolorem atque deleniti praesentium animi rerum illum nisi qui.\nNatus dolor quos delectus quaerat explicabo quidem ea.\nLaborum fuga provident et exercitationem soluta molestiae et.\nVoluptatum quis labore animi architecto quibusdam quia culpa est sed.\nVel vel quas quis magnam est enim et provident.\nNemo omnis explicabo velit et accusantium natus voluptate.",
      "openHours": "",
      "address": "76852 Martins Marginal",
      "phone": "(42) 55918-6334",
      "M4T": false,
      "photoUrl": "http://lorempixel.com/640/480/food",
      "created": "2015-03-24T04:53:13.743Z",
      "updated": "2015-12-01T09:04:54.570Z",
      "lat": -51.1539,
      "lng": -132.677
    },
    {
      "id": 109,
      "title": "Internal Assurance Facilitator",
      "center": "Polo Alessandra do Descoberto",
      "state": "GO",
      "city": "Nogueira de Nossa Senhora",
      "neighborhood": "Warley",
      "description": "Nihil tenetur velit molestiae rerum voluptatem.\nDolores sunt non incidunt dignissimos autem id magni doloribus.\nNobis aut sed id hic.\nAut ratione distinctio nihil.\nNam molestiae neque autem quidem porro harum excepturi.",
      "openHours": "",
      "address": "65329 Albuquerque Viela",
      "phone": "+55 (19) 4797-4182",
      "M4T": true,
      "photoUrl": "http://lorempixel.com/640/480/people",
      "created": "2016-02-23T17:08:10.545Z",
      "updated": "2015-09-27T13:03:21.009Z",
      "lat": -52.4022,
      "lng": 30.2358
    },
    {
      "id": 110,
      "title": "National Infrastructure Director",
      "center": "Polo Velha Ofélia",
      "state": "AM",
      "city": "Município de Larissa do Norte",
      "neighborhood": "Talita",
      "description": "Rem necessitatibus suscipit aut aliquid aut asperiores.\nDucimus cupiditate rerum enim ea vero molestiae quisquam quas.\nIpsum et ipsa sit.",
      "openHours": "",
      "address": "31484 Barros Marginal",
      "phone": "(14) 83951-8216",
      "M4T": true,
      "photoUrl": "http://lorempixel.com/640/480/cats",
      "created": "2015-05-21T14:53:05.547Z",
      "updated": "2015-07-15T21:18:36.968Z",
      "lat": 64.8961,
      "lng": -36.2695
    },
    {
      "id": 111,
      "title": "Dynamic Security Supervisor",
      "center": "Polo Vila Lorena",
      "state": "PB",
      "city": "Albuquerque do Descoberto",
      "neighborhood": "Ricardo",
      "description": "Ea sint laboriosam nesciunt pariatur.\nAnimi aut dolores velit.\nEt dolorem neque ut harum error ut quae architecto.\nPossimus mollitia et ut animi sit enim.",
      "openHours": "",
      "address": "39224 Maria Rodovia",
      "phone": "+55 (48) 7179-2220",
      "M4T": false,
      "photoUrl": "http://lorempixel.com/640/480/food",
      "created": "2015-12-02T17:14:30.766Z",
      "updated": "2016-01-08T05:58:39.089Z",
      "lat": 68.4142,
      "lng": 176.8451
    },
    {
      "id": 112,
      "title": "Global Metrics Specialist",
      "center": "Polo Fabrícia do Sul",
      "state": "PE",
      "city": "Silva do Sul",
      "neighborhood": "Marcela",
      "description": "Occaecati qui numquam accusamus eligendi voluptates magnam.\nQuae rerum iusto in est.\nSaepe enim ipsa aperiam in quisquam et consectetur.\nNon at ut nihil aperiam eveniet.\nTempore est qui non.\nOccaecati ea fuga quia provident dolorem deserunt eveniet est.",
      "openHours": "",
      "address": "2631 Frederico Ponte",
      "phone": "(61) 7695-2619",
      "M4T": true,
      "photoUrl": "http://lorempixel.com/640/480/nature",
      "created": "2015-05-17T11:41:48.438Z",
      "updated": "2016-01-03T22:11:38.486Z",
      "lat": 23.5646,
      "lng": 151.5868
    },
    {
      "id": 113,
      "title": "Dynamic Program Administrator",
      "center": "Polo Município de Marcela de Nossa Senhora",
      "state": "RJ",
      "city": "Vila Júlio",
      "neighborhood": "Gustavo",
      "description": "Aut tempore deleniti.\nCorrupti at qui.\nAccusamus facilis non.\nRatione facere vel blanditiis sint fuga recusandae dignissimos.\nVel ea qui blanditiis.\nNesciunt blanditiis consequuntur architecto ipsa at.",
      "openHours": "",
      "address": "00133 Lorraine Viela",
      "phone": "(96) 4062-9311",
      "M4T": true,
      "photoUrl": "http://lorempixel.com/640/480/cats",
      "created": "2016-02-18T02:53:59.580Z",
      "updated": "2015-03-27T04:52:32.781Z",
      "lat": -89.8665,
      "lng": 112.6407
    },
    {
      "id": 114,
      "title": "Dynamic Interactions Liason",
      "center": "Polo Grande Lucas do Descoberto",
      "state": "ES",
      "city": "Bruna do Descoberto",
      "neighborhood": "Ladislau",
      "description": "Aliquid accusantium aspernatur.\nEt esse beatae at commodi delectus ipsa ab consequatur vel.\nDebitis sunt sed.\nEst excepturi dolores non velit quod.\nNobis amet tempore.",
      "openHours": "",
      "address": "582 Albuquerque Travessa",
      "phone": "(03) 83665-5964",
      "M4T": true,
      "photoUrl": "http://lorempixel.com/640/480/nature",
      "created": "2016-01-19T14:56:43.846Z",
      "updated": "2015-07-13T21:38:42.589Z",
      "lat": -64.2533,
      "lng": -16.6016
    },
    {
      "id": 115,
      "title": "Forward Identity Strategist",
      "center": "Polo Fabrícia do Sul",
      "state": "PE",
      "city": "Silva do Sul",
      "neighborhood": "Paulo",
      "description": "Minima saepe distinctio similique aperiam qui culpa corporis.\nVelit sed et modi.\nAliquam velit eaque eligendi.\nAut libero ipsam qui voluptas consequatur labore pariatur et.",
      "openHours": "",
      "address": "5783 Costa Marginal",
      "phone": "(91) 35501-9992",
      "M4T": false,
      "photoUrl": "http://lorempixel.com/640/480/abstract",
      "created": "2015-10-24T18:08:09.810Z",
      "updated": "2015-04-14T03:15:32.426Z",
      "lat": -58.4235,
      "lng": -38.1351
    },
    {
      "id": 116,
      "title": "Regional Accountability Specialist",
      "center": "Polo Moreira do Sul",
      "state": "DF",
      "city": "Batista de Nossa Senhora",
      "neighborhood": "Célia",
      "description": "Doloribus optio error impedit.\nSaepe perferendis debitis architecto tenetur tempora voluptatem.\nUt quam minus.\nVeritatis consequatur cupiditate aperiam eius aut sed qui occaecati.\nCupiditate ut asperiores quia dolores.",
      "openHours": "",
      "address": "8734 Santos Marginal",
      "phone": "+55 (51) 2503-7451",
      "M4T": false,
      "photoUrl": "http://lorempixel.com/640/480/nightlife",
      "created": "2015-07-11T22:08:42.133Z",
      "updated": "2015-05-09T19:12:51.655Z",
      "lat": 41.7229,
      "lng": 99.2654
    },
    {
      "id": 117,
      "title": "National Communications Designer",
      "center": "Polo Município de Rafael de Nossa Senhora",
      "state": "RR",
      "city": "Moreira do Descoberto",
      "neighborhood": "Silas",
      "description": "Perspiciatis ab molestias ad et rem temporibus voluptatem est.\nEst voluptas officiis quaerat sint eveniet.\nQuia sunt mollitia suscipit nam omnis quod.\nEst quod nesciunt sit porro nostrum quia sit consequuntur a.\nId aut cupiditate a eius possimus.\nEligendi numquam adipisci.",
      "openHours": "",
      "address": "768 Franco Ponte",
      "phone": "(43) 89021-3315",
      "M4T": false,
      "photoUrl": "http://lorempixel.com/640/480/nature",
      "created": "2015-07-18T00:51:12.094Z",
      "updated": "2015-10-27T19:49:17.207Z",
      "lat": 42.956,
      "lng": -150.6244
    },
    {
      "id": 118,
      "title": "Customer Markets Executive",
      "center": "Polo Danilo do Sul",
      "state": "RN",
      "city": "Grande Esther",
      "neighborhood": "Pedro",
      "description": "Vitae molestiae provident.\nAut earum maxime et iste et quia ut.\nSit magni et qui est consequatur placeat.\nAut vero iure eum.\nDolorem earum reiciendis illum quis non dolor et quia necessitatibus.",
      "openHours": "",
      "address": "080 Joana Marginal",
      "phone": "+55 (41) 6942-6130",
      "M4T": false,
      "photoUrl": "http://lorempixel.com/640/480/fashion",
      "created": "2015-11-05T05:08:54.356Z",
      "updated": "2015-08-16T14:55:20.244Z",
      "lat": 51.8029,
      "lng": 107.6974
    },
    {
      "id": 119,
      "title": "Internal Tactics Facilitator",
      "center": "Polo Moreira do Sul",
      "state": "DF",
      "city": "Batista de Nossa Senhora",
      "neighborhood": "Washington",
      "description": "Ducimus architecto voluptate et et.\nExplicabo vitae eaque velit.\nQui reiciendis rerum animi quae harum assumenda facere.\nOccaecati quo ea.\nMinima voluptatem deserunt consequatur ad quam.\nAutem corporis ut dolores voluptate dolorem est nesciunt sequi.",
      "openHours": "",
      "address": "61140 Sara Marginal",
      "phone": "(10) 2751-7596",
      "M4T": false,
      "photoUrl": "http://lorempixel.com/640/480/business",
      "created": "2015-09-29T04:56:57.717Z",
      "updated": "2015-11-21T07:09:23.666Z",
      "lat": 54.8233,
      "lng": -178.6877
    },
    {
      "id": 120,
      "title": "Dynamic Brand Strategist",
      "center": "Polo Santos do Descoberto",
      "state": "AL",
      "city": "Nova Elísio de Nossa Senhora",
      "neighborhood": "Tertuliano",
      "description": "Dolorem excepturi maxime quam.\nEaque quia velit nulla ea aut quidem deserunt sit qui.\nLaborum iure a numquam magnam expedita.\nFugiat pariatur soluta quibusdam qui rerum odit.",
      "openHours": "",
      "address": "172 Oliveira Rodovia",
      "phone": "(48) 64751-1418",
      "M4T": false,
      "photoUrl": "http://lorempixel.com/640/480/business",
      "created": "2015-04-30T13:05:12.551Z",
      "updated": "2015-11-24T01:33:38.089Z",
      "lat": 1.3957,
      "lng": 55.477
    },
    {
      "id": 121,
      "title": "Internal Directives Facilitator",
      "center": "Polo Batista do Norte",
      "state": "MA",
      "city": "Velha Fabrícia",
      "neighborhood": "Ladislau",
      "description": "Maxime culpa facere eum quibusdam nostrum magni.\nSed dolores neque accusamus nulla magnam velit.\nTempore veritatis excepturi quod unde nam.\nQui dolorem quia excepturi deleniti et pariatur soluta.",
      "openHours": "",
      "address": "11506 Barros Avenida",
      "phone": "+55 (65) 7951-0087",
      "M4T": false,
      "photoUrl": "http://lorempixel.com/640/480/people",
      "created": "2015-07-27T10:52:52.202Z",
      "updated": "2015-08-09T14:36:37.573Z",
      "lat": 86.9425,
      "lng": 101.6032
    },
    {
      "id": 122,
      "title": "Investor Interactions Strategist",
      "center": "Polo Grande Lucas do Descoberto",
      "state": "ES",
      "city": "Bruna do Descoberto",
      "neighborhood": "Víctor",
      "description": "Alias aperiam sed et repellendus.\nRepellendus labore repudiandae.\nEt voluptatem nobis sunt est id.\nEum est consectetur excepturi fuga accusantium.\nRepudiandae adipisci iusto a eius vel.",
      "openHours": "",
      "address": "68913 Franco Ponte",
      "phone": "+55 (45) 8756-4420",
      "M4T": true,
      "photoUrl": "http://lorempixel.com/640/480/food",
      "created": "2015-06-26T07:06:31.824Z",
      "updated": "2015-12-12T03:07:20.388Z",
      "lat": -20.4021,
      "lng": -10.6825
    },
    {
      "id": 123,
      "title": "Dynamic Metrics Facilitator",
      "center": "Polo Velha Danilo",
      "state": "PB",
      "city": "Nova Natália",
      "neighborhood": "Sirineu",
      "description": "Quia incidunt sunt dolorem ipsam pariatur.\nDolor enim at non ut quibusdam facere.\nIste nihil quis eaque dolorem.",
      "openHours": "",
      "address": "4691 Nogueira Ponte",
      "phone": "(97) 98586-0289",
      "M4T": false,
      "photoUrl": "http://lorempixel.com/640/480/business",
      "created": "2016-03-03T21:31:04.104Z",
      "updated": "2015-06-15T00:58:59.700Z",
      "lat": -57.544,
      "lng": 161.5828
    },
    {
      "id": 124,
      "title": "Product Branding Architect",
      "center": "Polo Fabrícia do Sul",
      "state": "PE",
      "city": "Silva do Sul",
      "neighborhood": "Pablo",
      "description": "Placeat illum recusandae et quia.\nEum earum est at dolorem aliquid veritatis ut est.\nLaboriosam explicabo pariatur odit omnis dolore tempora.",
      "openHours": "",
      "address": "839 Marcela Ponte",
      "phone": "(07) 2190-1372",
      "M4T": false,
      "photoUrl": "http://lorempixel.com/640/480/cats",
      "created": "2015-12-21T18:26:31.026Z",
      "updated": "2015-05-06T20:02:36.261Z",
      "lat": 53.6476,
      "lng": -6.9353
    },
    {
      "id": 125,
      "title": "Forward Division Liason",
      "center": "Polo Alessandra do Descoberto",
      "state": "GO",
      "city": "Nogueira de Nossa Senhora",
      "neighborhood": "Dalila",
      "description": "Autem mollitia ut consectetur enim.\nId eius et neque impedit sed aliquid sit amet odio.\nDolore aliquam doloremque quisquam dolores dolores in fugiat recusandae et.\nEt qui ut voluptas.\nCommodi sunt nostrum qui.",
      "openHours": "",
      "address": "411 Pereira Ponte",
      "phone": "+55 (94) 0106-2804",
      "M4T": false,
      "photoUrl": "http://lorempixel.com/640/480/abstract",
      "created": "2015-11-16T05:41:44.699Z",
      "updated": "2016-01-09T01:49:01.331Z",
      "lat": 69.8983,
      "lng": -32.4229
    },
    {
      "id": 126,
      "title": "District Factors Associate",
      "center": "Polo Batista do Norte",
      "state": "MA",
      "city": "Velha Fabrícia",
      "neighborhood": "Yuri",
      "description": "Nostrum accusamus quibusdam doloremque ab reiciendis qui ut nemo.\nAut vel explicabo inventore veritatis commodi in.\nTempora at delectus sunt est dolorum.",
      "openHours": "",
      "address": "9345 Albuquerque Ponte",
      "phone": "+55 (66) 4353-1792",
      "M4T": true,
      "photoUrl": "http://lorempixel.com/640/480/food",
      "created": "2015-03-31T16:18:39.755Z",
      "updated": "2015-11-06T01:28:23.142Z",
      "lat": 30.6037,
      "lng": 163.2029
    },
    {
      "id": 127,
      "title": "Dynamic Configuration Agent",
      "center": "Polo Barros do Descoberto",
      "state": "RJ",
      "city": "Velha Marli",
      "neighborhood": "Gustavo",
      "description": "Sit aliquid dolores numquam molestias est id deserunt.\nLibero ea explicabo quasi autem provident dicta iste.\nCulpa cupiditate itaque.\nRepellat sunt est commodi magni vel dolores est quia.\nQui labore odio placeat libero odit.",
      "openHours": "",
      "address": "62545 Salvador Alameda",
      "phone": "(74) 8961-4696",
      "M4T": false,
      "photoUrl": "http://lorempixel.com/640/480/business",
      "created": "2015-10-06T17:44:44.324Z",
      "updated": "2015-04-06T20:00:18.178Z",
      "lat": -30.541,
      "lng": -92.9191
    },
    {
      "id": 128,
      "title": "Direct Paradigm Supervisor",
      "center": "Polo Alessandra do Descoberto",
      "state": "GO",
      "city": "Nogueira de Nossa Senhora",
      "neighborhood": "César",
      "description": "Atque voluptate sint molestias.\nDoloremque saepe quo accusamus aspernatur.\nAt id corrupti.\nEt iusto consectetur unde.\nTotam minus quas vel necessitatibus tenetur adipisci maiores facere ullam.",
      "openHours": "",
      "address": "537 Barros Ponte",
      "phone": "+55 (37) 9916-6687",
      "M4T": true,
      "photoUrl": "http://lorempixel.com/640/480/business",
      "created": "2015-08-25T09:10:38.649Z",
      "updated": "2015-08-04T03:30:22.927Z",
      "lat": 36.1256,
      "lng": 93.0385
    },
    {
      "id": 129,
      "title": "Central Infrastructure Officer",
      "center": "Polo Vila Aline",
      "state": "RR",
      "city": "Fabrícia do Sul",
      "neighborhood": "Fabrício",
      "description": "Est nisi sint quia veritatis.\nExercitationem nisi nostrum esse qui nam saepe ut id consequatur.\nQuos blanditiis temporibus eligendi aliquam non qui fugiat.\nPorro officiis totam non ut occaecati possimus at itaque.\nAb dolor suscipit aut ex commodi qui vel eum.\nIllo aspernatur unde hic sit ea.",
      "openHours": "",
      "address": "7355 Moreira Alameda",
      "phone": "(18) 69119-7775",
      "M4T": false,
      "photoUrl": "http://lorempixel.com/640/480/sports",
      "created": "2015-03-23T18:24:13.273Z",
      "updated": "2015-09-27T06:25:29.765Z",
      "lat": -14.3431,
      "lng": 156.7362
    },
    {
      "id": 130,
      "title": "Future Data Assistant",
      "center": "Polo Velha Washington",
      "state": "PB",
      "city": "Moreira do Descoberto",
      "neighborhood": "Larissa",
      "description": "Ipsum ratione provident et aut deserunt laborum.\nQuidem nihil sunt.\nSunt assumenda ut.",
      "openHours": "",
      "address": "72155 Souza Marginal",
      "phone": "+55 (35) 2810-9795",
      "M4T": true,
      "photoUrl": "http://lorempixel.com/640/480/cats",
      "created": "2016-01-24T15:18:21.783Z",
      "updated": "2015-12-31T16:24:44.369Z",
      "lat": -56.5047,
      "lng": -151.582
    },
    {
      "id": 131,
      "title": "Global Assurance Orchestrator",
      "center": "Polo Fabrícia do Sul",
      "state": "PE",
      "city": "Silva do Sul",
      "neighborhood": "Marcela",
      "description": "Qui voluptatem quibusdam dolorem aut ut similique earum eveniet.\nNatus rerum occaecati aut repellendus culpa vitae aut quos.\nAut tenetur veritatis ea.",
      "openHours": "",
      "address": "16691 Santos Alameda",
      "phone": "+55 (71) 6793-9138",
      "M4T": true,
      "photoUrl": "http://lorempixel.com/640/480/abstract",
      "created": "2016-01-06T23:14:17.877Z",
      "updated": "2015-12-12T23:01:04.357Z",
      "lat": -28.431,
      "lng": -74.1866
    },
    {
      "id": 132,
      "title": "Forward Factors Analyst",
      "center": "Polo Yango do Sul",
      "state": "AM",
      "city": "Velha Nataniel do Descoberto",
      "neighborhood": "Talita",
      "description": "Aspernatur quo nam nemo assumenda quod.\nVoluptatum alias veniam quas repellat.\nAdipisci ut similique aspernatur nesciunt qui ea necessitatibus.\nConsequatur impedit error.",
      "openHours": "",
      "address": "12138 Silva Travessa",
      "phone": "(51) 5054-6093",
      "M4T": true,
      "photoUrl": "http://lorempixel.com/640/480/transport",
      "created": "2016-02-05T03:25:56.690Z",
      "updated": "2016-02-07T19:45:28.211Z",
      "lat": 39.1583,
      "lng": 113.1155
    },
    {
      "id": 133,
      "title": "District Brand Manager",
      "center": "Polo Talita do Sul",
      "state": "PE",
      "city": "Grande Guilherme do Sul",
      "neighborhood": "Paula",
      "description": "Quisquam odio itaque enim aliquam id.\nAut nihil dolore error omnis et.\nOmnis consectetur facilis adipisci.",
      "openHours": "",
      "address": "993 Carvalho Avenida",
      "phone": "+55 (27) 5293-0280",
      "M4T": false,
      "photoUrl": "http://lorempixel.com/640/480/food",
      "created": "2015-04-01T14:00:33.294Z",
      "updated": "2016-01-29T18:21:06.485Z",
      "lat": -83.3117,
      "lng": -91.2151
    },
    {
      "id": 134,
      "title": "Forward Optimization Specialist",
      "center": "Polo Moreira de Nossa Senhora",
      "state": "AM",
      "city": "Oliveira do Descoberto",
      "neighborhood": "Sara",
      "description": "Quis iste nihil laborum recusandae illum.\nSuscipit quia rerum maxime.\nConsequatur corporis at voluptas repudiandae et aspernatur consequatur voluptate.",
      "openHours": "",
      "address": "925 Franco Ponte",
      "phone": "(90) 55369-5413",
      "M4T": true,
      "photoUrl": "http://lorempixel.com/640/480/animals",
      "created": "2015-10-26T22:44:17.702Z",
      "updated": "2015-12-27T16:06:34.676Z",
      "lat": 32.555,
      "lng": 9.4745
    },
    {
      "id": 135,
      "title": "Customer Communications Administrator",
      "center": "Polo Costa do Sul",
      "state": "DF",
      "city": "Nova Natália do Sul",
      "neighborhood": "Lucas",
      "description": "Et eos distinctio.\nAmet repellat impedit omnis necessitatibus optio totam.\nRecusandae laboriosam harum assumenda ut fuga sit ratione perferendis.\nQuia et consequatur amet illo rerum incidunt inventore.\nSint eos nemo dolorem quod similique sed.\nUt excepturi non sed commodi.",
      "openHours": "",
      "address": "64346 Ladislau Marginal",
      "phone": "(94) 4031-8917",
      "M4T": false,
      "photoUrl": "http://lorempixel.com/640/480/transport",
      "created": "2015-06-05T05:11:33.294Z",
      "updated": "2015-05-07T07:07:19.495Z",
      "lat": 3.1751,
      "lng": 62.4643
    },
    {
      "id": 136,
      "title": "Human Data Executive",
      "center": "Polo Yango do Sul",
      "state": "AM",
      "city": "Velha Nataniel do Descoberto",
      "neighborhood": "Carla",
      "description": "Quia itaque consectetur repellat.\nNam eum facilis repellat a.\nUllam facere aspernatur voluptatem ipsum distinctio dignissimos et in temporibus.\nIllum distinctio autem est est beatae autem.\nNisi et nihil pariatur saepe ducimus consequatur.\nSapiente consequatur consequatur dolores non.",
      "openHours": "",
      "address": "1683 Gúbio Travessa",
      "phone": "(29) 3161-1967",
      "M4T": false,
      "photoUrl": "http://lorempixel.com/640/480/people",
      "created": "2016-01-21T22:19:44.420Z",
      "updated": "2015-12-31T09:58:54.501Z",
      "lat": -71.9315,
      "lng": 118.9382
    },
    {
      "id": 137,
      "title": "Lead Paradigm Officer",
      "center": "Polo Moreira do Sul",
      "state": "DF",
      "city": "Batista de Nossa Senhora",
      "neighborhood": "Isabel",
      "description": "Quia reiciendis eligendi et aut.\nTenetur non voluptatum quidem ut numquam itaque ut.\nPossimus reprehenderit aut cum sed placeat.\nMinima dolores possimus perferendis cum.\nUt qui in est sed.",
      "openHours": "",
      "address": "859 Ofélia Viela",
      "phone": "+55 (18) 4840-0848",
      "M4T": true,
      "photoUrl": "http://lorempixel.com/640/480/business",
      "created": "2016-01-15T11:05:27.776Z",
      "updated": "2015-08-22T23:00:16.935Z",
      "lat": 82.5909,
      "lng": 160.5186
    },
    {
      "id": 138,
      "title": "Lead Assurance Facilitator",
      "center": "Polo Vila Aline",
      "state": "RR",
      "city": "Fabrícia do Sul",
      "neighborhood": "Larissa",
      "description": "Dicta tenetur est sunt harum corrupti reiciendis illum.\nMaxime et neque quia.\nCum quo totam voluptatibus omnis.\nMolestiae ex ratione vero est cum quos aut nihil voluptatem.",
      "openHours": "",
      "address": "4844 Barros Viela",
      "phone": "(24) 99408-9516",
      "M4T": true,
      "photoUrl": "http://lorempixel.com/640/480/animals",
      "created": "2015-06-17T13:45:02.125Z",
      "updated": "2015-06-26T20:06:59.539Z",
      "lat": 22.6797,
      "lng": -154.7571
    },
    {
      "id": 139,
      "title": "Principal Marketing Liason",
      "center": "Polo Costa do Sul",
      "state": "DF",
      "city": "Nova Natália do Sul",
      "neighborhood": "Cecília",
      "description": "Sunt aut beatae dicta autem rerum.\nSuscipit aut voluptas.\nMaiores aut illo fugit dolor.\nEligendi debitis laudantium.",
      "openHours": "",
      "address": "30969 Janaína Rodovia",
      "phone": "(05) 37632-9024",
      "M4T": true,
      "photoUrl": "http://lorempixel.com/640/480/food",
      "created": "2015-07-18T08:44:39.537Z",
      "updated": "2016-03-05T15:30:13.260Z",
      "lat": 27.5736,
      "lng": -104.7661
    },
    {
      "id": 140,
      "title": "Product Implementation Developer",
      "center": "Polo Moreira do Sul",
      "state": "DF",
      "city": "Batista de Nossa Senhora",
      "neighborhood": "Rafaela",
      "description": "Sint rerum suscipit fugit impedit distinctio incidunt.\nError inventore repellendus perspiciatis totam.\nTotam aperiam ullam deleniti et optio quisquam quo et.\nAtque sunt ducimus laboriosam blanditiis id ut.",
      "openHours": "",
      "address": "42539 Isabel Marginal",
      "phone": "(24) 2889-1860",
      "M4T": true,
      "photoUrl": "http://lorempixel.com/640/480/sports",
      "created": "2015-12-20T15:23:04.651Z",
      "updated": "2015-08-20T02:06:18.858Z",
      "lat": -35.2637,
      "lng": 58.7357
    },
    {
      "id": 141,
      "title": "Principal Functionality Technician",
      "center": "Polo Velha Frederico de Nossa Senhora",
      "state": "SP",
      "city": "Velha Yago do Sul",
      "neighborhood": "Meire",
      "description": "Ut officiis perferendis architecto atque unde.\nMaxime non enim voluptatem recusandae.\nEt molestias adipisci totam error.\nConsequuntur hic reprehenderit non fugiat omnis.\nPorro id qui dolorem voluptas.",
      "openHours": "",
      "address": "504 Silva Travessa",
      "phone": "(18) 91482-2839",
      "M4T": true,
      "photoUrl": "http://lorempixel.com/640/480/city",
      "created": "2016-01-20T05:49:31.052Z",
      "updated": "2015-09-12T03:57:48.884Z",
      "lat": -50.8814,
      "lng": 72.5673
    },
    {
      "id": 142,
      "title": "Lead Program Executive",
      "center": "Polo Velha Frederico de Nossa Senhora",
      "state": "SP",
      "city": "Velha Yago do Sul",
      "neighborhood": "Sílvia",
      "description": "Est sequi et minus voluptatibus.\nQuo cum voluptatem error vitae quasi beatae.\nExplicabo id facere ratione similique reiciendis autem a nam earum.\nAutem voluptatem et doloremque labore optio nemo accusantium.\nSint voluptatem praesentium est beatae laudantium deserunt quia ratione voluptatum.\nVitae et est enim neque unde facilis porro.",
      "openHours": "",
      "address": "30226 Washington Travessa",
      "phone": "+55 (58) 9787-7095",
      "M4T": false,
      "photoUrl": "http://lorempixel.com/640/480/people",
      "created": "2015-04-21T00:21:49.259Z",
      "updated": "2015-05-19T09:37:20.349Z",
      "lat": 45.6291,
      "lng": -146.8752
    },
    {
      "id": 143,
      "title": "Dynamic Brand Developer",
      "center": "Polo Yango do Sul",
      "state": "AM",
      "city": "Velha Nataniel do Descoberto",
      "neighborhood": "Hugo",
      "description": "Quis libero possimus molestiae corrupti et magnam.\nCumque voluptatem aut voluptatum explicabo corrupti assumenda itaque.\nNulla exercitationem sint ut et debitis nesciunt.\nPraesentium repudiandae magnam ut et tenetur officiis.\nInventore esse et quia quis numquam.\nQuaerat nam maiores non.",
      "openHours": "",
      "address": "620 Danilo Viela",
      "phone": "(66) 9756-1045",
      "M4T": false,
      "photoUrl": "http://lorempixel.com/640/480/sports",
      "created": "2015-05-01T17:29:53.515Z",
      "updated": "2015-11-18T02:37:59.042Z",
      "lat": -54.9505,
      "lng": -171.2136
    },
    {
      "id": 144,
      "title": "Lead Operations Planner",
      "center": "Polo Nataniel do Descoberto",
      "state": "MS",
      "city": "Albuquerque do Descoberto",
      "neighborhood": "Roberta",
      "description": "Rerum qui eum illum doloremque.\nFuga quis velit dolores inventore est voluptatem esse.\nMolestias sit excepturi omnis voluptatibus.\nArchitecto quia velit aut voluptatem delectus.\nVoluptatem tempore est soluta distinctio adipisci vel repellat occaecati.\nId eligendi non doloremque consequuntur.",
      "openHours": "",
      "address": "5268 Santos Marginal",
      "phone": "(07) 0185-1800",
      "M4T": true,
      "photoUrl": "http://lorempixel.com/640/480/fashion",
      "created": "2016-02-13T02:12:25.506Z",
      "updated": "2015-10-29T06:04:52.567Z",
      "lat": 17.1168,
      "lng": -11.5559
    },
    {
      "id": 145,
      "title": "Chief Metrics Coordinator",
      "center": "Polo Yango do Sul",
      "state": "AM",
      "city": "Velha Nataniel do Descoberto",
      "neighborhood": "Sara",
      "description": "Iure amet delectus quo mollitia.\nTemporibus unde hic error est.\nOmnis sed id qui temporibus in.",
      "openHours": "",
      "address": "395 Santos Rodovia",
      "phone": "(14) 11722-4892",
      "M4T": false,
      "photoUrl": "http://lorempixel.com/640/480/transport",
      "created": "2016-03-05T20:02:24.556Z",
      "updated": "2015-08-07T16:32:52.646Z",
      "lat": -88.0346,
      "lng": 119.2446
    },
    {
      "id": 146,
      "title": "Global Directives Supervisor",
      "center": "Polo Município de Rafael de Nossa Senhora",
      "state": "RR",
      "city": "Moreira do Descoberto",
      "neighborhood": "Isabela",
      "description": "Enim nisi non dolor asperiores.\nVel sit quae odio cupiditate.\nVoluptatem quae beatae mollitia omnis.\nReiciendis sit modi dolor corrupti.",
      "openHours": "",
      "address": "4164 Nogueira Avenida",
      "phone": "+55 (37) 4454-8828",
      "M4T": false,
      "photoUrl": "http://lorempixel.com/640/480/business",
      "created": "2015-12-18T14:30:44.814Z",
      "updated": "2015-10-16T08:42:07.849Z",
      "lat": -36.402,
      "lng": -166.579
    },
    {
      "id": 147,
      "title": "Human Operations Officer",
      "center": "Polo Melo do Norte",
      "state": "GO",
      "city": "Albuquerque do Descoberto",
      "neighborhood": "Gúbio",
      "description": "Modi veritatis voluptatum ullam.\nLaborum et suscipit sint nam modi quos asperiores enim.\nDolore dolorem rerum eius impedit aspernatur non harum quo eveniet.",
      "openHours": "",
      "address": "98966 Xavier Viela",
      "phone": "(30) 4480-8730",
      "M4T": true,
      "photoUrl": "http://lorempixel.com/640/480/city",
      "created": "2015-08-16T20:29:30.610Z",
      "updated": "2015-05-14T22:15:09.818Z",
      "lat": -36.3039,
      "lng": 174.8756
    },
    {
      "id": 148,
      "title": "Corporate Quality Analyst",
      "center": "Polo Melo do Norte",
      "state": "GO",
      "city": "Albuquerque do Descoberto",
      "neighborhood": "Yuri",
      "description": "Dolorem alias eligendi maxime et velit.\nAd voluptatem et.\nAut maiores facere omnis et nisi explicabo earum excepturi minima.",
      "openHours": "",
      "address": "65418 Macedo Avenida",
      "phone": "(62) 50972-6606",
      "M4T": true,
      "photoUrl": "http://lorempixel.com/640/480/people",
      "created": "2015-09-11T13:58:29.973Z",
      "updated": "2015-05-10T15:25:15.387Z",
      "lat": -25.8951,
      "lng": -4.2424
    },
    {
      "id": 149,
      "title": "Lead Accounts Orchestrator",
      "center": "Polo Xavier do Sul",
      "state": "PE",
      "city": "Vila Fabrício",
      "neighborhood": "Roberto",
      "description": "Iusto et amet quia consequatur praesentium aperiam.\nVelit et dolores quaerat perspiciatis officiis error voluptatem doloremque dolorem.\nEa exercitationem harum minus deserunt.",
      "openHours": "",
      "address": "25620 Braga Rua",
      "phone": "(89) 77969-5643",
      "M4T": false,
      "photoUrl": "http://lorempixel.com/640/480/technics",
      "created": "2015-04-17T10:24:19.978Z",
      "updated": "2015-12-04T03:08:03.234Z",
      "lat": 27.8721,
      "lng": -87.7063
    }
  ],
  "centers": [
    {
      "id": 0,
      "title": "Polo Município de Karla",
      "state": "CE",
      "city": "Vila Suélen do Norte",
      "neighborhoods": [
        "Dr. Ofélia Xavier",
        "Júlio César Nogueira"
      ],
      "text": "Ut nulla autem expedita.\nQuaerat nihil temporibus magnam et harum quo.\nNobis quae neque inventore ab ex error.\nTempore id dolor magni.\nIpsa distinctio non praesentium nihil incidunt id omnis unde.\n \rNobis cumque libero illum nisi sapiente qui consequatur saepe.\nRepudiandae est voluptatibus.\nAccusantium itaque quae voluptatem.\nAccusantium odit corporis magnam unde sunt dolor sit.\n \rNesciunt molestiae iure aperiam non nam.\nLibero assumenda molestiae ut dolores nemo consequatur odio alias ipsum.\nUt labore sed non autem modi.",
      "photoUrl": "http://lorempixel.com/640/480/animals",
      "openHours": 77764,
      "phone": "+55 (61) 9282-3893",
      "homepage": "http://marli.com",
      "created": "2016-01-24T20:56:51.703Z",
      "updated": "2016-02-23T21:59:35.222Z",
      "lat": -79.8325,
      "lng": -92.7008,
      "distance": 45844,
      "restaurants": ""
    },
    {
      "id": 1,
      "title": "Polo Alessandra do Descoberto",
      "state": "GO",
      "city": "Nogueira de Nossa Senhora",
      "neighborhoods": [
        "Ofélia Batista",
        "Norberto Melo",
        "Paula Pereira Dr."
      ],
      "text": "At laborum dolorum eos libero ex et sint quidem quia.\nProvident voluptatum ut qui placeat accusamus ullam eos consectetur.\nNulla aut qui laudantium dolorum ut soluta omnis cum.\nVoluptate hic est quidem dolorum.\nVoluptatum veritatis aut.\nDolor veritatis necessitatibus fugit quaerat ut ducimus sed natus omnis.\n \rFuga aut quae hic et qui.\nEst fuga ex consectetur optio.\nEst ut quod laudantium ipsam.\n \rEt voluptatem autem nisi ut quia dolore architecto.\nNemo iure explicabo.\nNihil voluptatem quia natus.\nDistinctio nihil fugit.",
      "photoUrl": "http://lorempixel.com/640/480/animals",
      "openHours": 93820,
      "phone": "(04) 44530-4329",
      "homepage": "https://núbia.br",
      "created": "2015-09-09T20:32:38.207Z",
      "updated": "2015-10-08T21:32:51.764Z",
      "lat": -49.928,
      "lng": -45.7987,
      "distance": 76156,
      "restaurants": ""
    },
    {
      "id": 2,
      "title": "Polo Rafael de Nossa Senhora",
      "state": "RN",
      "city": "Santos do Descoberto",
      "neighborhoods": [
        "Mércia Carvalho"
      ],
      "text": "Quas recusandae ut sit magnam.\nSunt quod nam omnis sapiente ipsam id.\nQuasi qui repellendus optio beatae ipsum harum.\nRepellendus ut id recusandae ad adipisci.\nRerum culpa voluptates quidem.\n \rId dolor eum aliquid voluptatem magnam.\nAmet deleniti non laboriosam molestiae nihil sapiente quos doloribus.\nRem sint qui expedita sit hic fugit.\nSint dolor cumque fuga natus deserunt.\nEsse incidunt numquam laborum est impedit quis voluptate.\n \rDolores est tempore reprehenderit laudantium laboriosam.\nAd ratione excepturi eveniet consequatur.\nDeleniti ad similique et repudiandae.\nCorrupti officiis atque recusandae quia dignissimos sunt.",
      "photoUrl": "http://lorempixel.com/640/480/business",
      "openHours": 40791,
      "phone": "(35) 77642-6121",
      "homepage": "https://roberto.biz",
      "created": "2015-05-29T17:35:52.850Z",
      "updated": "2016-01-26T12:23:04.084Z",
      "lat": -52.9872,
      "lng": 88.8614,
      "distance": 75441,
      "restaurants": ""
    },
    {
      "id": 3,
      "title": "Polo Vila João",
      "state": "MA",
      "city": "Moreira do Sul",
      "neighborhoods": [
        "Joana Pereira"
      ],
      "text": "Delectus et nam fugit autem.\nOmnis sed id.\nEligendi voluptatum sit itaque ut est soluta distinctio temporibus ab.\nDolore velit eum sit sit corporis aut ea tempore iure.\nAut rem animi ipsa in et iure.\n \rIpsam consequuntur magnam ut cum.\nOccaecati maiores perferendis.\nRem dolores nemo eius debitis nobis accusamus voluptas quod.\nEst iure quos placeat eius.\nDolor minima ab similique odio excepturi.\nTotam deleniti alias debitis illo vel dolorem ipsam.\n \rAliquam veniam dicta fugiat quisquam.\nVoluptatibus modi dolore atque.\nIllum tenetur eaque soluta amet et voluptatem.",
      "photoUrl": "http://lorempixel.com/640/480/food",
      "openHours": 87464,
      "phone": "+55 (34) 1198-8232",
      "homepage": "https://félix.name",
      "created": "2015-07-17T10:06:48.687Z",
      "updated": "2015-12-22T03:42:23.269Z",
      "lat": 87.8847,
      "lng": 65.2135,
      "distance": 53810,
      "restaurants": ""
    },
    {
      "id": 4,
      "title": "Polo Grande Lucas do Descoberto",
      "state": "ES",
      "city": "Bruna do Descoberto",
      "neighborhoods": [
        "Morgana Braga",
        "Sra. Hélio Moreira"
      ],
      "text": "Quisquam neque distinctio est in.\nCupiditate placeat ab ut.\nCommodi non tempore totam facilis.\nQui autem quo qui et voluptatem dolorem labore.\n \rQui deleniti sed quis non.\nUt velit sint.\nUt tempora hic eligendi quod excepturi.\nVoluptas consectetur aperiam nihil veniam aliquid consequuntur voluptatem commodi dolorem.\n \rVel neque possimus optio rem ad ut in maxime.\nUt debitis ipsum dolore ea vero.\nEaque autem nobis optio.\nConsequatur beatae ut consectetur necessitatibus officiis blanditiis vel unde maxime.\nNulla molestiae beatae.\nTotam amet dolorum error accusantium.",
      "photoUrl": "http://lorempixel.com/640/480/sports",
      "openHours": 31842,
      "phone": "(17) 74723-2844",
      "homepage": "http://rafaela.name",
      "created": "2016-01-30T11:19:51.811Z",
      "updated": "2015-12-11T23:39:45.217Z",
      "lat": 40.9125,
      "lng": 64.4816,
      "distance": 6920,
      "restaurants": ""
    },
    {
      "id": 5,
      "title": "Polo Melo de Nossa Senhora",
      "state": "SC",
      "city": "Santos do Descoberto",
      "neighborhoods": [
        "Silas Pereira"
      ],
      "text": "At et odio illo quo aperiam doloremque.\nAd eligendi asperiores recusandae et dicta et quod omnis.\nUt sit sed officia eligendi voluptatem sunt excepturi.\nIpsum repellendus sed iusto labore mollitia.\nFugiat omnis aperiam maxime tenetur et non dolorum natus.\nFuga aut sint ad.\n \rVel quos minima mollitia voluptas eum debitis harum fuga.\nVelit nam animi sunt voluptatum et reiciendis eligendi.\nAliquam ipsam quis eligendi assumenda iure.\nEst optio fugit est itaque earum.\nOccaecati sit quo dignissimos dolores neque enim tempore.\nMolestias sit numquam id qui commodi enim.\n \rIn occaecati dolorum natus itaque a enim aut.\nAccusantium ut iste fugit ipsum unde.\nQuia aut velit nesciunt quas voluptate.\nDolores et a architecto atque suscipit qui at pariatur magnam.\nIn eum et voluptatem.\nAut distinctio qui et fugiat.",
      "photoUrl": "http://lorempixel.com/640/480/nature",
      "openHours": 91282,
      "phone": "+55 (69) 1594-4479",
      "homepage": "https://roberta.com",
      "created": "2015-10-09T05:37:47.390Z",
      "updated": "2015-10-24T05:44:54.573Z",
      "lat": -5.6257,
      "lng": -179.2479,
      "distance": 94804,
      "restaurants": ""
    },
    {
      "id": 6,
      "title": "Polo Moreira do Sul",
      "state": "DF",
      "city": "Batista de Nossa Senhora",
      "neighborhoods": [
        "Breno Santos Srta."
      ],
      "text": "Sint rerum illo a quo expedita ut dolor odio iure.\nUt dolor quod rem et placeat totam.\nSuscipit omnis est repudiandae recusandae.\nEaque nisi sed et velit.\n \rQuasi molestiae eligendi mollitia consectetur in nihil perferendis.\nLibero culpa dolore et rem.\nDucimus magnam occaecati exercitationem.\nCum ipsam at blanditiis cupiditate mollitia id veritatis.\nSit dicta suscipit temporibus sequi.\n \rQui id libero eius aut quae repudiandae iste officiis ut.\nAut sint pariatur perferendis tempore est quaerat.\nFugiat animi numquam sequi dolores non tempore a.",
      "photoUrl": "http://lorempixel.com/640/480/business",
      "openHours": 88555,
      "phone": "(28) 7733-3392",
      "homepage": "https://breno.info",
      "created": "2016-02-02T06:25:46.692Z",
      "updated": "2015-09-22T22:34:23.583Z",
      "lat": -31.8764,
      "lng": 178.9596,
      "distance": 3861,
      "restaurants": ""
    },
    {
      "id": 7,
      "title": "Polo Nataniel do Descoberto",
      "state": "MS",
      "city": "Albuquerque do Descoberto",
      "neighborhoods": [
        "Isabel Oliveira"
      ],
      "text": "Vel reprehenderit voluptatibus cumque in aspernatur.\nNeque eos voluptatem adipisci eum.\nAspernatur quaerat est voluptatem et qui in.\nUt est incidunt ab sit nisi numquam quis magni.\nEt aliquam earum quas omnis quaerat adipisci officiis eum.\nAut quis nulla.\n \rQuis animi ut magnam laboriosam velit est.\nLabore sed nihil modi dolorem sunt alias voluptatum dolore sed.\nModi inventore vero.\nNihil cupiditate accusantium aut.\nDolor sit qui ut molestias necessitatibus enim velit quisquam earum.\nPorro quidem illo voluptas totam at.\n \rVitae sit amet animi fugit ea unde ut.\nPerspiciatis magni distinctio atque dolor error ad aut voluptatibus.\nDoloremque dolorem perspiciatis.",
      "photoUrl": "http://lorempixel.com/640/480/sports",
      "openHours": 61884,
      "phone": "(24) 31226-4260",
      "homepage": "https://gustavo.net",
      "created": "2015-10-10T21:59:23.440Z",
      "updated": "2016-01-15T10:04:38.363Z",
      "lat": 40.2426,
      "lng": 86.3295,
      "distance": 65516,
      "restaurants": ""
    },
    {
      "id": 8,
      "title": "Polo Moreira de Nossa Senhora",
      "state": "AM",
      "city": "Oliveira do Descoberto",
      "neighborhoods": [
        "Margarida Batista Sra."
      ],
      "text": "Sed molestiae sit numquam assumenda.\nFacere dolorum dolor amet distinctio sit pariatur qui mollitia.\nAlias voluptatum quis ea quod exercitationem corporis pariatur quo facilis.\nIn aut repellendus officiis occaecati repellat pariatur.\n \rMollitia odio consectetur omnis aliquid saepe illum blanditiis est molestiae.\nRerum voluptatibus iste doloribus.\nRerum a sapiente.\n \rIste quia facilis consequatur dicta aliquid.\nEst sit nemo accusantium.\nEa reiciendis et vel.\nIpsam reiciendis at ducimus.",
      "photoUrl": "http://lorempixel.com/640/480/animals",
      "openHours": 3213,
      "phone": "(68) 34098-1121",
      "homepage": "http://hugo.br",
      "created": "2015-07-22T03:14:13.964Z",
      "updated": "2015-05-07T08:39:19.232Z",
      "lat": 26.094,
      "lng": 108.9061,
      "distance": 55383,
      "restaurants": ""
    },
    {
      "id": 9,
      "title": "Polo Velha Frederico de Nossa Senhora",
      "state": "SP",
      "city": "Velha Yago do Sul",
      "neighborhoods": [
        "Fábio Saraiva",
        "Marcos Souza",
        "Vicente Carvalho"
      ],
      "text": "Sint earum harum facere dicta modi sit quae et accusamus.\nPerferendis tenetur maiores minima sint.\nDoloribus nostrum corrupti tenetur sint maiores in placeat.\nQuos qui est eum pariatur.\nIste et rerum aut illo quod sunt.\n \rTempora laudantium enim est.\nQuia quas maxime quo.\nEnim in praesentium quasi et sunt eius ea non.\nVoluptatum quia accusamus eligendi.\nCorporis ipsam tenetur neque quas earum velit et perspiciatis magni.\n \rQuis quas reprehenderit eligendi est.\nVoluptatem voluptatem voluptates aut dolor fugiat eius qui vero aliquid.\nNesciunt et doloribus dolorem eius voluptatibus aut nulla odit.\nFugit quas sapiente.",
      "photoUrl": "http://lorempixel.com/640/480/nightlife",
      "openHours": 82736,
      "phone": "(63) 75713-0165",
      "homepage": "https://júlio césar.net",
      "created": "2015-08-03T14:18:22.040Z",
      "updated": "2015-09-08T11:06:46.372Z",
      "lat": 57.4633,
      "lng": -143.4974,
      "distance": 40004,
      "restaurants": ""
    },
    {
      "id": 10,
      "title": "Polo Danilo do Sul",
      "state": "RN",
      "city": "Grande Esther",
      "neighborhoods": [
        "Talita Melo",
        "Yuri Nogueira"
      ],
      "text": "In sed dolorem qui quia perspiciatis nostrum.\nSit natus tempore repellat atque.\nEst rerum molestias ut nam libero sint et.\nSint sit consequuntur excepturi accusamus est.\n \rConsequatur ut sit doloremque perferendis suscipit dolore aliquam labore corporis.\nVelit repellat eius vel aperiam.\nDolores laborum aliquam quasi est officia facere dolorem pariatur qui.\nAtque non est id.\nIllo qui possimus est.\nQui sunt ut adipisci vero.\n \rQui quo quisquam consequatur vero soluta odit sed recusandae.\nId dolorem soluta enim maxime ut numquam dolore iure consequatur.\nSapiente doloribus voluptas libero.\nConsectetur repellendus hic odit ut ipsum est ut est.\nOmnis quasi nihil aliquid quam iusto magnam sunt.\nLaudantium impedit quam voluptatibus perspiciatis enim nostrum quis deserunt.",
      "photoUrl": "http://lorempixel.com/640/480/technics",
      "openHours": 64176,
      "phone": "(57) 50550-6416",
      "homepage": "http://fabrício.net",
      "created": "2015-05-31T20:27:30.313Z",
      "updated": "2016-02-09T23:37:44.924Z",
      "lat": -72.7978,
      "lng": 83.0676,
      "distance": 550,
      "restaurants": ""
    },
    {
      "id": 11,
      "title": "Polo Barros do Descoberto",
      "state": "RJ",
      "city": "Velha Marli",
      "neighborhoods": [
        "Antônio Batista",
        "Suélen Martins",
        "Natália Costa",
        "Rafaela Braga"
      ],
      "text": "Magnam laborum quam fugiat consectetur et.\nNemo voluptatem aut quam autem totam natus.\nRerum molestiae consectetur illo rerum voluptate ut.\n \rQui sunt aut voluptatem placeat ipsa.\nConsequuntur asperiores molestiae ab.\nDoloribus ipsa facilis eaque perferendis in ab consequuntur.\n \rEt nulla sint reiciendis.\nOmnis tenetur ea et excepturi minus officiis quia.\nQui sit porro doloremque assumenda magni quasi sed placeat asperiores.\nLaudantium animi illum velit exercitationem architecto sit nulla.\nVelit aut quis voluptates nihil incidunt repellat asperiores accusantium.\nAb dolore culpa cumque modi voluptatem sint praesentium excepturi.",
      "photoUrl": "http://lorempixel.com/640/480/fashion",
      "openHours": 23211,
      "phone": "(22) 2261-8477",
      "homepage": "https://cecília.com",
      "created": "2015-10-01T07:14:28.001Z",
      "updated": "2015-08-30T23:31:33.847Z",
      "lat": 52.0835,
      "lng": -48.9315,
      "distance": 3095,
      "restaurants": ""
    },
    {
      "id": 12,
      "title": "Polo Município de Marcela de Nossa Senhora",
      "state": "RJ",
      "city": "Vila Júlio",
      "neighborhoods": [
        "Srta. Alessandra Reis",
        "Marcela Batista Sr."
      ],
      "text": "Sed mollitia vero quia vitae natus et eius amet inventore.\nMinima tempore dicta id voluptas.\nFacere est et cupiditate et ducimus pariatur ad.\nVoluptatem et perspiciatis repellendus quidem cupiditate magnam.\n \rEt accusantium recusandae dolorum sint nihil occaecati quod.\nSoluta autem quis est natus ratione sed culpa eum tempora.\nTotam quam impedit ipsam quos cupiditate accusantium reprehenderit et sed.\nFacere eum illo.\nSunt id quia assumenda non eum asperiores doloribus quas.\n \rAmet est sint neque rerum modi.\nDolores aliquid odio aperiam vitae eligendi.\nMinus expedita dolor sint voluptatem ut molestias molestiae.\nMinima ex dolor eos voluptatem corrupti est ducimus commodi.\nIn sit tenetur nostrum saepe et.\nQui consectetur eveniet maxime ut suscipit vero ut.",
      "photoUrl": "http://lorempixel.com/640/480/fashion",
      "openHours": 97965,
      "phone": "(64) 75833-8656",
      "homepage": "https://alessandra.org",
      "created": "2015-05-24T17:09:55.258Z",
      "updated": "2015-10-23T11:51:44.848Z",
      "lat": -65.5339,
      "lng": 152.373,
      "distance": 89544,
      "restaurants": ""
    },
    {
      "id": 13,
      "title": "Polo Vila Aline",
      "state": "RR",
      "city": "Fabrícia do Sul",
      "neighborhoods": [
        "Ígor Silva",
        "Rafael Braga",
        "Isabela Melo"
      ],
      "text": "Consequatur voluptatem doloremque animi odio incidunt quia.\nCupiditate eum eligendi dolores.\nNatus omnis est eum repellendus pariatur.\nSed repudiandae fugit rerum est non facilis qui.\nFuga consectetur voluptatum voluptatibus eius eaque eveniet corporis laboriosam repellendus.\nNeque iure beatae voluptatum.\n \rConsectetur placeat incidunt accusamus nobis.\nQui illum aspernatur voluptas soluta facilis esse.\nDolorem itaque inventore consequatur quia nemo praesentium excepturi consequatur nulla.\nEsse eius earum id veritatis aliquam facere qui.\nQuisquam ipsum aspernatur voluptatibus quam nihil tenetur similique consectetur.\nEt rerum a nisi ratione ut ea.\n \rUt cum sunt quia omnis fugiat distinctio.\nRerum ipsum ut quos aut tempora non explicabo culpa voluptas.\nSit soluta a quo eos consectetur eaque.\nAd natus ratione.",
      "photoUrl": "http://lorempixel.com/640/480/nightlife",
      "openHours": 6112,
      "phone": "+55 (76) 3960-7652",
      "homepage": "https://raul.info",
      "created": "2015-12-26T07:58:45.179Z",
      "updated": "2016-01-16T14:59:28.810Z",
      "lat": 76.6497,
      "lng": 36.1798,
      "distance": 63003,
      "restaurants": ""
    },
    {
      "id": 14,
      "title": "Polo Velha Washington",
      "state": "PB",
      "city": "Moreira do Descoberto",
      "neighborhoods": [
        "Isabela Souza"
      ],
      "text": "Dolores dolor quidem ad nihil.\nA non id id ducimus sed.\nQui veritatis voluptatem sunt minus inventore molestiae labore quia praesentium.\nOmnis quasi vel sed deserunt ipsam deleniti.\n \rEst sunt dolores voluptates ad consequuntur temporibus officia facere.\nEt aut veniam quis reprehenderit omnis.\nExplicabo ut pariatur doloremque et omnis excepturi autem maxime quia.\nEsse debitis doloremque voluptatum assumenda omnis molestiae soluta pariatur.\nUt dolor debitis assumenda.\n \rTempora perferendis nulla.\nOdit eveniet rerum eaque rerum cum eum.\nNemo cumque accusantium.\nIncidunt animi ut laudantium modi quidem voluptatem delectus.\nTotam veritatis dolores placeat tempora ea omnis.",
      "photoUrl": "http://lorempixel.com/640/480/cats",
      "openHours": 30431,
      "phone": "(85) 76233-1645",
      "homepage": "https://vitória.net",
      "created": "2016-03-02T10:14:07.374Z",
      "updated": "2015-03-31T13:38:30.076Z",
      "lat": -1.5863,
      "lng": 135.9779,
      "distance": 97637,
      "restaurants": ""
    },
    {
      "id": 15,
      "title": "Polo Silva de Nossa Senhora",
      "state": "PE",
      "city": "Nova Fábio",
      "neighborhoods": [
        "Dr. Félix Santos"
      ],
      "text": "Nemo enim ipsam doloribus assumenda et.\nRepudiandae occaecati rerum asperiores error quisquam officiis iure tempora.\nLaboriosam qui ut.\nDolor at nulla cupiditate accusamus molestiae delectus.\n \rAccusamus eum a numquam.\nTemporibus quia inventore voluptatem.\nDelectus nesciunt reiciendis.\nArchitecto sed sequi distinctio quasi quia rerum impedit.\n \rNon aut voluptas neque porro ut ut eveniet quos.\nQuasi est nisi voluptas qui harum magni eveniet repellendus saepe.\nVoluptatibus minima et ut itaque expedita.\nUt voluptatum error vero qui ad quia laborum voluptate.",
      "photoUrl": "http://lorempixel.com/640/480/animals",
      "openHours": 55264,
      "phone": "(80) 4449-1756",
      "homepage": "https://larissa.br",
      "created": "2015-10-05T04:07:33.960Z",
      "updated": "2016-02-06T01:43:21.947Z",
      "lat": -20.9276,
      "lng": -33.5769,
      "distance": 22155,
      "restaurants": ""
    },
    {
      "id": 16,
      "title": "Polo Velha Danilo",
      "state": "PB",
      "city": "Nova Natália",
      "neighborhoods": [
        "Bruna Carvalho",
        "Feliciano Franco",
        "Eduarda Silva",
        "Silas Xavier"
      ],
      "text": "Sapiente harum facere dolorem rerum.\nRem est ut illum.\nVoluptatum illo ea nihil consequatur adipisci voluptas nisi.\nQuod harum recusandae.\nSed perferendis provident.\n \rSoluta quia adipisci.\nNihil quo est aperiam voluptas amet omnis sunt.\nQuas temporibus ipsum voluptas.\nNemo tenetur dolores deleniti consequatur sit adipisci.\nIpsa velit sunt molestias.\n \rCum eum sapiente earum et.\nEnim laboriosam aut sit officia velit sint voluptas aspernatur.\nEnim quia cum.\nHic tenetur culpa occaecati omnis.\nEt necessitatibus facilis nihil voluptatem in molestiae.\nFugit sint et.",
      "photoUrl": "http://lorempixel.com/640/480/cats",
      "openHours": 204,
      "phone": "(07) 31472-2907",
      "homepage": "https://antônio.com",
      "created": "2015-10-22T23:25:03.887Z",
      "updated": "2016-01-12T07:59:02.217Z",
      "lat": -64.6963,
      "lng": 12.1457,
      "distance": 21319,
      "restaurants": ""
    },
    {
      "id": 17,
      "title": "Polo Melo do Norte",
      "state": "GO",
      "city": "Albuquerque do Descoberto",
      "neighborhoods": [
        "Larissa Saraiva",
        "Ricardo Macedo"
      ],
      "text": "Cum minima ut reiciendis dolorem ex consequatur totam.\nMolestias voluptatum laudantium eveniet voluptates quis.\nNon aut possimus ea quod dolor.\nAtque esse earum est aut eum.\nQuo repellendus omnis.\n \rConsequatur quia qui vel quis harum voluptatibus et saepe ea.\nUllam suscipit qui placeat blanditiis quia omnis.\nEum quis beatae fugit pariatur qui.\nVeniam quas dolores.\nNisi quis provident quas atque nihil rerum earum aliquam.\n \rOfficiis ea natus reiciendis accusantium odit quibusdam vel est dolorem.\nQui doloremque et deleniti sit autem mollitia sunt dolor quidem.\nImpedit quae quam.\nQui eveniet nesciunt.\nAccusantium dolorem quia voluptatem quia dolorum.",
      "photoUrl": "http://lorempixel.com/640/480/people",
      "openHours": 1419,
      "phone": "(47) 4570-7705",
      "homepage": "https://lucas.br",
      "created": "2015-04-17T09:45:51.568Z",
      "updated": "2015-06-29T07:22:51.035Z",
      "lat": -67.6392,
      "lng": -91.0758,
      "distance": 17594,
      "restaurants": ""
    },
    {
      "id": 18,
      "title": "Polo Grande Alexandre",
      "state": "PB",
      "city": "Reis do Sul",
      "neighborhoods": [
        "Sr. Danilo Oliveira",
        "Warley Macedo",
        "Srta. Warley Saraiva"
      ],
      "text": "Tempore autem eveniet veniam.\nDignissimos dolor et nisi eum sapiente odit nulla.\nNobis voluptate ab numquam.\nSint itaque eligendi consequatur temporibus consequuntur alias dolorum officiis ab.\n \rNon et aut incidunt eos aut at praesentium aspernatur.\nOmnis libero quia repellendus magni ut architecto repudiandae.\nCumque ea tempora officia.\n \rReiciendis inventore non ipsam ad necessitatibus eligendi officiis minima.\nSunt nobis quo rerum quis placeat.\nConsequatur id et quia aut itaque dolorem nam.\nEt animi corrupti repudiandae reiciendis nulla odit labore voluptatibus dolor.",
      "photoUrl": "http://lorempixel.com/640/480/fashion",
      "openHours": 10159,
      "phone": "(74) 21503-5326",
      "homepage": "http://lorena.biz",
      "created": "2016-02-10T16:36:08.530Z",
      "updated": "2015-11-10T03:52:44.874Z",
      "lat": 25.4841,
      "lng": -146.8667,
      "distance": 71715,
      "restaurants": ""
    },
    {
      "id": 19,
      "title": "Polo Nova Natália de Nossa Senhora",
      "state": "SC",
      "city": "Marli do Descoberto",
      "neighborhoods": [
        "Tertuliano Moreira",
        "Sr. Washington Xavier"
      ],
      "text": "Vel et possimus officia aut non numquam est dolores voluptatibus.\nDolorem temporibus dolor nostrum est.\nIllum neque voluptas facilis aliquam.\nInventore dolor neque adipisci.\nRerum blanditiis enim sed dolore ea nihil velit.\n \rDistinctio quia eum doloremque vel magnam molestiae iste aliquid.\nSed rerum molestiae aut voluptatem.\nNam reprehenderit qui necessitatibus sed molestias explicabo suscipit.\nSit consequatur eveniet molestiae velit veniam ut praesentium.\nEt aliquid consequatur nemo aperiam et molestias.\nMollitia eaque doloribus.\n \rPlaceat tenetur sequi eos veniam quod ut neque fugiat modi.\nModi quibusdam laborum quasi.\nId modi perferendis dolorem.",
      "photoUrl": "http://lorempixel.com/640/480/abstract",
      "openHours": 93952,
      "phone": "(31) 5389-1593",
      "homepage": "http://esther.br",
      "created": "2015-03-09T11:58:17.144Z",
      "updated": "2015-12-28T09:43:12.912Z",
      "lat": -25.233,
      "lng": 10.9125,
      "distance": 80525,
      "restaurants": ""
    },
    {
      "id": 20,
      "title": "Polo Talita do Sul",
      "state": "PE",
      "city": "Grande Guilherme do Sul",
      "neighborhoods": [
        "Marli Carvalho"
      ],
      "text": "Necessitatibus quae deleniti quidem aliquid dolor quia officia.\nDignissimos magnam est et accusamus.\nMaiores sint eius a recusandae hic architecto praesentium aspernatur perspiciatis.\nSed aut sunt consectetur nostrum minus ab recusandae magnam iste.\nUt est neque voluptatem tempore ut qui.\nVoluptates eaque ut dicta est recusandae dolor nesciunt est.\n \rEst voluptatibus veniam.\nExpedita accusantium laborum quidem error.\nLaudantium doloremque laborum velit et.\nFuga et neque quas excepturi laboriosam consequatur.\nQuas cupiditate sit molestiae autem quisquam illum animi.\nLabore inventore hic sed voluptate fugit.\n \rVoluptatem unde in in minus non velit voluptas.\nUt similique nulla et sunt voluptas quia in est.\nEa quia ipsum officia et reprehenderit quasi adipisci repellendus et.",
      "photoUrl": "http://lorempixel.com/640/480/nature",
      "openHours": 57928,
      "phone": "+55 (32) 4521-2207",
      "homepage": "http://feliciano.name",
      "created": "2015-04-16T18:35:11.272Z",
      "updated": "2015-04-04T11:23:16.602Z",
      "lat": 68.6162,
      "lng": 160.8537,
      "distance": 72,
      "restaurants": ""
    },
    {
      "id": 21,
      "title": "Polo Santos do Descoberto",
      "state": "AL",
      "city": "Nova Elísio de Nossa Senhora",
      "neighborhoods": [
        "Frederico Batista",
        "Pablo Franco"
      ],
      "text": "Dolor quas accusantium laudantium dolorum expedita sed nisi.\nQuis ratione libero.\nSapiente non deserunt.\nRecusandae beatae omnis id unde ipsam nemo labore.\nNatus autem possimus.\nAutem aspernatur aut dolorem deserunt consequatur ea dignissimos.\n \rQuos laborum illo illum molestiae sit.\nIpsum eos non.\nNobis velit delectus dignissimos est ratione ex id rerum dolorem.\n \rPlaceat architecto alias ipsa ut et ut.\nAut enim sunt aspernatur.\nSimilique qui soluta laudantium ut in harum non laboriosam magni.\nVoluptatibus doloremque explicabo totam.",
      "photoUrl": "http://lorempixel.com/640/480/transport",
      "openHours": 43152,
      "phone": "(90) 9183-4438",
      "homepage": "https://ofélia.net",
      "created": "2016-02-13T19:21:36.748Z",
      "updated": "2015-09-04T00:59:32.529Z",
      "lat": 55.6918,
      "lng": -14.36,
      "distance": 26173,
      "restaurants": ""
    },
    {
      "id": 22,
      "title": "Polo Fabrícia do Sul",
      "state": "PE",
      "city": "Silva do Sul",
      "neighborhoods": [
        "Norberto Carvalho"
      ],
      "text": "Molestias natus voluptatem ut velit pariatur eos a.\nEum veniam autem omnis voluptatem provident dolor qui deleniti fugit.\nVeniam qui omnis dolorem rerum vel omnis nulla.\nQui quo non facere.\nAsperiores nemo odio.\nNumquam neque illum vitae amet ab.\n \rCommodi vitae autem reiciendis quam qui officia sed saepe at.\nRerum a sed quos aut ut est rem voluptatum.\nVoluptatum reiciendis sapiente sunt blanditiis iste omnis non omnis.\n \rId nemo et odio.\nSint excepturi reiciendis.\nLaborum vel sed accusamus amet quos facere cumque.\nLaudantium voluptas amet a sit sed sequi molestiae voluptatum.\nIste distinctio non laudantium autem ut libero animi.\nVelit aut ea quis sed quos perspiciatis id beatae consectetur.",
      "photoUrl": "http://lorempixel.com/640/480/transport",
      "openHours": 68936,
      "phone": "+55 (45) 3610-9075",
      "homepage": "https://ladislau.name",
      "created": "2015-09-02T12:10:48.429Z",
      "updated": "2015-10-01T05:08:34.551Z",
      "lat": 72.692,
      "lng": 122.0914,
      "distance": 13281,
      "restaurants": ""
    },
    {
      "id": 23,
      "title": "Polo Yango do Sul",
      "state": "AM",
      "city": "Velha Nataniel do Descoberto",
      "neighborhoods": [
        "Sr. Hélio Nogueira"
      ],
      "text": "Consectetur architecto dicta occaecati et.\nDolor deleniti quos vel rerum illum.\nProvident doloribus voluptatem.\nLaborum quia expedita voluptate aut.\n \rQuas vitae velit consectetur at quidem dignissimos rem voluptatibus iure.\nLaboriosam facilis laborum aut ullam ea eveniet dicta.\nPerferendis distinctio sint et quis.\nNulla ut tempora aut doloremque.\nVero delectus maiores.\n \rPerferendis qui nihil laboriosam.\nFugiat aut ut illum voluptas aut.\nEt dolores quia est id error nemo pariatur eos fugit.\nRepellendus similique eius quasi dolores quia.\nVeniam est assumenda aut harum iusto voluptas.",
      "photoUrl": "http://lorempixel.com/640/480/people",
      "openHours": 68970,
      "phone": "(21) 89090-8662",
      "homepage": "https://félix.net",
      "created": "2015-04-21T09:17:22.148Z",
      "updated": "2015-07-27T14:58:08.770Z",
      "lat": 28.3973,
      "lng": 163.6958,
      "distance": 26199,
      "restaurants": ""
    },
    {
      "id": 24,
      "title": "Polo Município de Rafael de Nossa Senhora",
      "state": "RR",
      "city": "Moreira do Descoberto",
      "neighborhoods": [
        "Mércia Macedo Sra.",
        "Gúbio Braga",
        "Yago Costa",
        "Srta. Fabiano Moraes"
      ],
      "text": "Quia fugiat accusantium sint consequatur.\nAut qui ducimus quaerat est est ea.\nIn vel consequatur saepe quibusdam.\nConsequatur sit sed nihil magnam quasi non aut.\nAutem aperiam ad est non placeat.\n \rError vitae laborum quis itaque.\nAccusamus sapiente veritatis ut aperiam.\nVoluptas nulla dolor quis labore inventore qui laboriosam accusantium.\nDucimus aut accusantium.\nIusto quis eos commodi et.\n \rEt voluptatem veritatis repudiandae consequuntur saepe ut ex.\nVoluptatibus soluta veniam.\nAut molestiae incidunt pariatur error necessitatibus quam eligendi.\nDicta itaque dolorem ab et est qui architecto expedita dignissimos.\nNecessitatibus mollitia porro molestiae nisi nihil ipsam aut quis.\nVoluptatum quis earum labore molestiae veritatis aut eos.",
      "photoUrl": "http://lorempixel.com/640/480/nightlife",
      "openHours": 72966,
      "phone": "+55 (30) 1788-2075",
      "homepage": "http://frederico.net",
      "created": "2015-03-28T14:08:30.683Z",
      "updated": "2015-03-17T14:04:10.013Z",
      "lat": 75.4041,
      "lng": 65.7039,
      "distance": 26171,
      "restaurants": ""
    },
    {
      "id": 25,
      "title": "Polo Xavier do Sul",
      "state": "PE",
      "city": "Vila Fabrício",
      "neighborhoods": [
        "Alessandro Xavier",
        "Ladislau Braga"
      ],
      "text": "Provident qui harum non sint accusamus labore.\nQuaerat vero aliquid.\nEnim neque esse ab.\nSapiente quas aliquid earum maxime.\n \rMinima laudantium dolores vel in eos.\nNostrum dolorum quia.\nQuidem velit rerum qui.\n \rTenetur consequatur occaecati numquam et similique dignissimos.\nDolore quia alias harum rerum aliquam.\nOmnis dolorum odit autem iste ea deserunt qui placeat doloribus.\nBeatae perspiciatis quod deserunt eos excepturi.",
      "photoUrl": "http://lorempixel.com/640/480/food",
      "openHours": 88145,
      "phone": "(15) 3820-4749",
      "homepage": "https://roberto.org",
      "created": "2015-09-04T03:34:45.258Z",
      "updated": "2015-04-24T07:09:49.638Z",
      "lat": -45.2174,
      "lng": -20.7246,
      "distance": 73387,
      "restaurants": ""
    },
    {
      "id": 26,
      "title": "Polo Velha Ofélia",
      "state": "AM",
      "city": "Município de Larissa do Norte",
      "neighborhoods": [
        "Yuri Silva",
        "Guilherme Batista"
      ],
      "text": "Rerum ut sunt dolor quos quasi ipsa.\nEius excepturi eveniet.\nEst aut ut voluptatum ipsum autem sit.\nEt quidem id ipsum.\nAutem officiis aut vel officia assumenda dolores.\nAsperiores occaecati quo earum ab quaerat numquam voluptas laboriosam quos.\n \rAliquam modi omnis.\nEnim autem aliquid eius qui necessitatibus sed numquam eos aut.\nVoluptatem deserunt deleniti natus non ab.\n \rEveniet recusandae eum earum.\nEt voluptatem impedit ab perferendis natus aut inventore explicabo neque.\nAdipisci voluptatem recusandae dolorem aspernatur.",
      "photoUrl": "http://lorempixel.com/640/480/people",
      "openHours": 6210,
      "phone": "(18) 22202-2623",
      "homepage": "https://fabrício.br",
      "created": "2015-03-22T09:50:25.147Z",
      "updated": "2016-01-13T14:55:18.398Z",
      "lat": 30.3159,
      "lng": 79.1066,
      "distance": 70690,
      "restaurants": ""
    },
    {
      "id": 27,
      "title": "Polo Costa do Sul",
      "state": "DF",
      "city": "Nova Natália do Sul",
      "neighborhoods": [
        "Meire Melo",
        "Srta. Gúbio Melo",
        "Rafaela Nogueira"
      ],
      "text": "Vero voluptas sed odit esse et velit.\nId adipisci unde perferendis in error aspernatur vel omnis vero.\nTotam magnam voluptate sit at quia et velit ut et.\nTempore saepe eius.\nQuisquam reiciendis temporibus vero.\nSed aliquam quibusdam.\n \rAut enim fugiat quo magni.\nVoluptatem consequatur libero aut nostrum rerum.\nOccaecati ut ipsa ut at ratione magnam.\nQui magnam quo enim numquam qui.\n \rUt rem fuga animi itaque aut provident vitae dolorum incidunt.\nVelit impedit vero laborum maiores eligendi voluptates consequuntur aut ab.\nOfficiis voluptatem eius nulla est.\nCommodi non sint.",
      "photoUrl": "http://lorempixel.com/640/480/people",
      "openHours": 84331,
      "phone": "(27) 01466-1546",
      "homepage": "http://isabela.net",
      "created": "2015-11-05T13:04:23.052Z",
      "updated": "2015-06-26T08:40:09.391Z",
      "lat": -43.5647,
      "lng": 84.7002,
      "distance": 11184,
      "restaurants": ""
    },
    {
      "id": 28,
      "title": "Polo Batista do Norte",
      "state": "MA",
      "city": "Velha Fabrícia",
      "neighborhoods": [
        "Sirineu Silva",
        "Yango Saraiva",
        "Deneval Xavier"
      ],
      "text": "Sit commodi hic soluta molestiae a.\nQuia molestiae omnis iste itaque.\nItaque omnis impedit.\nRepellat dolores mollitia omnis tenetur molestiae et.\nAperiam qui error aut sit iusto laboriosam aspernatur.\n \rNatus ea quo.\nQui nam amet quia ea quasi ea quaerat.\nEst possimus et voluptas deleniti voluptatum laboriosam.\nAmet voluptatum qui aspernatur eveniet dolorum sapiente ipsa.\nNostrum quis doloremque.\n \rEos libero dolor rerum voluptatibus exercitationem possimus assumenda.\nMaxime quos ipsam et omnis quis magni iste dolorem.\nAsperiores animi minima ipsum.\nAsperiores et iste.\nEos quam accusamus sapiente et aut.",
      "photoUrl": "http://lorempixel.com/640/480/animals",
      "openHours": 19354,
      "phone": "(22) 94372-2461",
      "homepage": "https://sirineu.net",
      "created": "2015-07-10T15:15:17.291Z",
      "updated": "2015-11-06T06:23:30.920Z",
      "lat": -88.7089,
      "lng": -177.6566,
      "distance": 71866,
      "restaurants": ""
    },
    {
      "id": 29,
      "title": "Polo Vila Lorena",
      "state": "PB",
      "city": "Albuquerque do Descoberto",
      "neighborhoods": [
        "Fabrício Oliveira"
      ],
      "text": "Dolores molestiae sed quia et.\nTenetur repudiandae aut expedita est rerum voluptas nam non.\nAtque dolor assumenda eius autem.\n \rEst voluptas et velit possimus.\nEum autem sequi et aperiam aut at nam ullam.\nQuasi architecto aspernatur quis dolor culpa omnis asperiores.\n \rFuga et adipisci doloremque ea asperiores rerum.\nUt repellendus harum repellat dolorem incidunt.\nRepellendus est ipsam delectus ullam recusandae quia.\nEt voluptatem dolores eum.",
      "photoUrl": "http://lorempixel.com/640/480/technics",
      "openHours": 103,
      "phone": "(52) 0466-6770",
      "homepage": "http://silas.net",
      "created": "2015-12-24T13:15:16.824Z",
      "updated": "2016-01-15T01:13:12.843Z",
      "lat": -76.1349,
      "lng": 128.1459,
      "distance": 64570,
      "restaurants": ""
    }
  ],
  "news": [
    {
      "id": 0,
      "center": "Polo Yango do Sul",
      "title": "National Integration Supervisor",
      "caption": "Sapiente velit esse modi est consectetur quia.",
      "text": "Sunt ipsa eos quas odio.\nNam ab debitis iste beatae sed a ad reiciendis.\nVoluptatem aut quod corrupti eius sed et ullam et aut.\nVoluptatem doloribus minima esse sed aliquid earum.\nRerum dolores rerum quo.\n \rAdipisci sit consequuntur dicta suscipit est itaque nihil aut esse.\nVel facere tenetur sit accusamus reiciendis.\nQui at nisi ipsum.\nTempore autem voluptas ut vitae pariatur consectetur et non quidem.\n \rQui et repellat ut ut beatae et.\nCorrupti error ex quas eius ea officiis.\nNulla fuga asperiores praesentium laudantium vero quod.\nDoloremque aperiam suscipit cum minus voluptatem sit blanditiis.",
      "photoUrl": "http://lorempixel.com/640/480/nature",
      "created": "2015-12-25T11:41:44.250Z",
      "updated": "2015-09-15T23:55:48.658Z",
      "event": false
    },
    {
      "id": 1,
      "center": "Polo Velha Frederico de Nossa Senhora",
      "title": "Human Identity Analyst",
      "caption": "Impedit vel cupiditate dolor quo.",
      "text": "Animi ut qui recusandae voluptates quaerat maiores incidunt aliquam.\nEligendi aperiam modi eos.\nBlanditiis est minus quasi iste ex consequatur qui.\nMagni numquam ratione molestiae vero quasi.\nConsequatur corrupti reprehenderit dolorum possimus sunt quasi quas est sit.\n \rConsequatur minus molestias fugit officia.\nDolore sit dicta nam.\nRerum ullam deleniti iste ut illo odit nihil.\n \rQuam est sint eos qui officiis dicta molestiae et ut.\nNon hic dolorum minus officiis nihil.\nSit repudiandae reprehenderit laudantium quasi est amet pariatur ratione sapiente.\nEt cupiditate dolorem.\nNeque officiis ut accusantium hic incidunt repellendus.\nAut quo laboriosam tempore itaque vitae sit.",
      "photoUrl": "http://lorempixel.com/640/480/animals",
      "created": "2015-10-29T02:19:25.744Z",
      "updated": "2015-12-21T01:20:42.025Z",
      "event": true
    },
    {
      "id": 2,
      "center": "Polo Yango do Sul",
      "title": "Product Optimization Administrator",
      "caption": "Fuga dolor quis voluptate.",
      "text": "Aliquid eligendi necessitatibus nesciunt neque qui perferendis et.\nAliquid omnis cupiditate dolorum voluptates praesentium.\nSuscipit inventore quae ullam maiores id ad nulla est.\nVeritatis consequatur porro voluptatum ipsam illo laudantium molestiae.\nDucimus harum et.\nImpedit voluptas sit quasi.\n \rCulpa assumenda harum et ducimus eum magni ratione distinctio itaque.\nDoloribus excepturi aut dolorum sapiente ut iure accusamus rerum optio.\nMolestiae sit quia aut sit assumenda quia illum qui qui.\nOmnis quia occaecati ut.\nNostrum cum iure architecto facilis earum dolorem et quis.\n \rSoluta minus placeat et harum.\nDignissimos dolor dolores aspernatur nobis.\nDoloremque inventore quia vel omnis maxime sint.\nQuis tempora suscipit non ipsa cumque.\nNemo praesentium deserunt facilis ex dolor repellendus.",
      "photoUrl": "http://lorempixel.com/640/480/technics",
      "created": "2015-10-01T13:38:45.552Z",
      "updated": "2015-03-31T15:34:59.680Z",
      "event": false
    },
    {
      "id": 3,
      "center": "Polo Silva de Nossa Senhora",
      "title": "Dynamic Response Representative",
      "caption": "Consequatur repellendus id provident aut quo omnis.",
      "text": "Autem sapiente rem qui et atque quis impedit quos praesentium.\nSequi eaque et aut illo officiis saepe.\nQuibusdam impedit rerum adipisci ut.\nConsequatur rem praesentium facilis et voluptatem itaque.\n \rPariatur alias autem id nemo quibusdam.\nInventore quos asperiores sequi cupiditate sapiente voluptatem mollitia quasi dolorum.\nProvident facere possimus laboriosam dicta quidem error.\nSint quidem enim ut est quis.\nUllam est rerum.\n \rFacilis omnis vero consequatur aut suscipit a.\nIllum aperiam et est quo magni atque in consequatur.\nDolorem voluptatem nulla corporis blanditiis quam aliquam tempora sunt qui.\nLabore consequatur aut dolore.",
      "photoUrl": "http://lorempixel.com/640/480/abstract",
      "created": "2016-01-02T02:14:06.643Z",
      "updated": "2015-03-24T16:06:00.295Z",
      "event": true
    },
    {
      "id": 4,
      "center": "Polo Município de Marcela de Nossa Senhora",
      "title": "Legacy Program Agent",
      "caption": "Architecto corrupti qui harum omnis eum molestiae magni consectetur.",
      "text": "Nemo quia delectus est non in.\nQui et est laborum corrupti et.\nExpedita in magni beatae odit rem.\n \rMaiores vel ut quo.\nQuis blanditiis in tenetur rerum quibusdam assumenda inventore.\nA quasi et dolore incidunt laudantium.\nOmnis eligendi ipsum voluptates quis minima sed qui.\nVoluptatem neque eos doloribus.\n \rVoluptatem rerum blanditiis repellendus voluptatum possimus.\nVeniam possimus facilis.\nEa blanditiis magnam voluptatibus est nihil error explicabo.\nUt accusamus ullam magni deserunt perferendis nobis.",
      "photoUrl": "http://lorempixel.com/640/480/abstract",
      "created": "2015-12-25T08:14:18.423Z",
      "updated": "2015-06-17T02:00:43.048Z",
      "event": true
    },
    {
      "id": 5,
      "center": "Polo Velha Ofélia",
      "title": "Corporate Division Technician",
      "caption": "Et repellendus libero et vitae cupiditate ad fugit ab aut.",
      "text": "A rerum minima corporis voluptas libero debitis voluptas.\nNumquam aspernatur vero nisi quibusdam excepturi amet magnam.\nConsequatur aut quidem.\nSimilique earum repellendus possimus expedita ea repellat sint.\n \rNisi saepe esse cupiditate.\nVel sapiente blanditiis incidunt culpa omnis qui cupiditate.\nSed hic neque dolor laudantium cupiditate.\nQuibusdam qui eveniet quaerat fugiat impedit in.\n \rPerspiciatis magni voluptates.\nPossimus est sit reprehenderit.\nId dicta soluta est ut dolorum dignissimos.",
      "photoUrl": "http://lorempixel.com/640/480/city",
      "created": "2015-06-05T17:50:56.045Z",
      "updated": "2015-07-02T22:49:14.137Z",
      "event": false
    },
    {
      "id": 6,
      "center": "Polo Grande Alexandre",
      "title": "Forward Response Specialist",
      "caption": "Ab totam pariatur incidunt excepturi error dolore illum accusamus.",
      "text": "Similique nam ea corrupti.\nNisi beatae et et et voluptatem itaque sunt ea qui.\nDoloremque neque quisquam itaque eveniet quis dolorem aliquid.\n \rMollitia iste natus qui reprehenderit eveniet et.\nEt consequatur accusantium corporis cumque ipsum et occaecati distinctio.\nSed corrupti molestiae sint.\nEt quae et sapiente et officia hic voluptatem.\n \rVeniam saepe voluptas et modi voluptatem.\nAdipisci perferendis atque numquam cum.\nEt autem unde tenetur perferendis amet quis ea adipisci.\nFacilis dolorum illo.\nFacilis soluta quos officia.\nCumque hic ad non facilis dolorem itaque amet in.",
      "photoUrl": "http://lorempixel.com/640/480/technics",
      "created": "2015-08-10T11:47:59.756Z",
      "updated": "2015-11-30T00:49:02.111Z",
      "event": true
    },
    {
      "id": 7,
      "center": "Polo Município de Karla",
      "title": "Chief Program Administrator",
      "caption": "Itaque at est debitis doloribus.",
      "text": "Fugit ut placeat et.\nNeque consequuntur ut.\nExpedita quod quos excepturi.\n \rSint amet nihil ipsa neque quia eum saepe mollitia dolore.\nConsectetur enim aut impedit aperiam occaecati quo quia similique.\nDelectus voluptas cum totam in aut et ut minima.\n \rAliquam facere quidem modi distinctio.\nReprehenderit nesciunt ea aut eligendi.\nAliquam corrupti accusantium libero sequi dolores.\nEt dicta et qui est.\nVoluptatem molestiae aut itaque.",
      "photoUrl": "http://lorempixel.com/640/480/sports",
      "created": "2015-09-22T08:27:41.171Z",
      "updated": "2015-12-16T18:28:30.858Z",
      "event": true
    },
    {
      "id": 8,
      "center": "Polo Melo do Norte",
      "title": "Regional Brand Orchestrator",
      "caption": "Natus nihil nam molestiae ratione fugit.",
      "text": "Animi quis eius sapiente.\nVoluptate doloribus nemo qui sit inventore.\nLaborum sed omnis inventore expedita unde ut.\n \rAssumenda aut magnam autem sapiente ratione.\nQuis sit in esse expedita eligendi non ipsa.\nDistinctio odit molestiae sunt vel blanditiis unde qui.\nLaborum velit et veniam.\nArchitecto sequi voluptas dolores voluptatibus est non.\nAut libero fugiat.\n \rProvident voluptatum repudiandae placeat magni et itaque voluptate aut.\nNesciunt error ut sequi blanditiis quod temporibus nemo harum hic.\nNisi labore rerum nihil qui perferendis sunt.",
      "photoUrl": "http://lorempixel.com/640/480/city",
      "created": "2015-04-05T02:08:49.942Z",
      "updated": "2015-07-14T04:18:01.292Z",
      "event": false
    },
    {
      "id": 9,
      "center": "Polo Yango do Sul",
      "title": "Dynamic Accountability Technician",
      "caption": "Et quaerat sunt quasi aspernatur ut libero voluptas a praesentium.",
      "text": "Ducimus cum pariatur nesciunt libero voluptate.\nAsperiores qui sed rerum a ut voluptas necessitatibus modi.\nNulla illum fugiat.\nEt vero impedit.\nFacere reiciendis aperiam minus perferendis quidem rerum.\nDolorem minima accusantium vel.\n \rAd qui nobis laudantium magni eligendi maxime excepturi aspernatur.\nHarum enim ad eos ducimus quod.\nEx magnam voluptatibus fuga voluptas voluptatum quasi officiis.\nQuam quia molestiae quo qui minima quia dolorem ducimus.\n \rPerferendis repellat nobis.\nVoluptas deleniti est placeat ea autem.\nQuidem exercitationem repellat.\nSit suscipit quia ut voluptatem.",
      "photoUrl": "http://lorempixel.com/640/480/people",
      "created": "2015-09-04T20:09:24.757Z",
      "updated": "2015-06-18T14:44:42.144Z",
      "event": false
    },
    {
      "id": 10,
      "center": "Polo Município de Rafael de Nossa Senhora",
      "title": "Global Implementation Developer",
      "caption": "Labore culpa rerum sunt ut.",
      "text": "Commodi temporibus saepe non.\nAsperiores provident quos voluptatum vel molestiae et at qui laudantium.\nTempore voluptatem dolor enim non in.\nMollitia alias ut non.\nSunt magnam suscipit non quis ad.\n \rVel libero corrupti sed maiores cupiditate minus mollitia sed.\nOfficia necessitatibus aut dolor ratione itaque et.\nCupiditate qui enim perferendis molestiae at animi incidunt et id.\nVoluptas aut provident.\nEligendi sed aut laboriosam voluptas.\nLibero aspernatur possimus laudantium fuga ullam rerum.\n \rAccusantium harum sapiente.\nExpedita officiis et at nisi quae inventore.\nEsse porro sed sequi eaque dolorum quae et illum officia.\nHic facilis aut id quae qui voluptatibus.\nVoluptatibus neque dolores maxime sint rerum dolore tenetur.",
      "photoUrl": "http://lorempixel.com/640/480/city",
      "created": "2015-05-17T07:55:54.919Z",
      "updated": "2015-05-11T00:58:22.195Z",
      "event": true
    },
    {
      "id": 11,
      "center": "Polo Nova Natália de Nossa Senhora",
      "title": "Lead Infrastructure Representative",
      "caption": "Quasi amet qui eaque.",
      "text": "Et dolor ea.\nVoluptates consequatur enim laborum.\nRatione quia maxime hic corrupti adipisci.\nConsequuntur repudiandae totam modi molestiae expedita optio veniam et.\nExcepturi repellat voluptatem.\nMaxime necessitatibus eos.\n \rQuisquam et atque quo officia sint sed qui et recusandae.\nFacilis aut eaque accusantium ipsa totam expedita soluta.\nRerum porro aliquam aut molestias et magnam.\nVeniam voluptate delectus.\nSunt ullam illo omnis laboriosam non voluptatem expedita molestiae nulla.\n \rDolore minus odio consequatur et.\nSint tenetur natus quo architecto qui facere officiis.\nItaque distinctio dolores.\nAutem quaerat dolores.",
      "photoUrl": "http://lorempixel.com/640/480/fashion",
      "created": "2015-08-01T16:05:03.855Z",
      "updated": "2015-10-17T19:55:29.455Z",
      "event": false
    },
    {
      "id": 12,
      "center": "Polo Costa do Sul",
      "title": "Dynamic Assurance Administrator",
      "caption": "Et veritatis nesciunt necessitatibus minus nobis.",
      "text": "Ipsum nesciunt consequatur sed est vel ipsam ut.\nVoluptatem nulla amet consectetur maxime.\nAlias veniam vel voluptatem.\nUt voluptates et et quia dolor ea et dicta dolores.\n \rRepudiandae cum officiis sunt et cupiditate vel.\nExercitationem praesentium quisquam.\nReiciendis earum natus incidunt suscipit molestiae commodi doloremque velit.\nReiciendis corrupti qui eligendi error neque provident iste voluptatibus ut.\n \rId omnis quia beatae iusto enim voluptatibus nam voluptatem aut.\nVoluptates eos rerum quas recusandae velit natus.\nA quo assumenda odit omnis laborum qui.",
      "photoUrl": "http://lorempixel.com/640/480/technics",
      "created": "2015-09-25T04:48:16.303Z",
      "updated": "2015-06-20T22:01:40.916Z",
      "event": false
    },
    {
      "id": 13,
      "center": "Polo Vila Lorena",
      "title": "International Tactics Technician",
      "caption": "Velit maxime omnis velit voluptate et non autem.",
      "text": "Omnis velit sunt.\nHic harum vel in nam quo.\nEst voluptates impedit occaecati suscipit doloribus.\nReiciendis ut dolorum.\n \rSimilique repudiandae sunt voluptate modi.\nIure odit eaque id.\nEst autem aut mollitia est tempore praesentium porro ut provident.\nDolore suscipit aperiam culpa et reprehenderit deserunt quia.\n \rAnimi sequi ut quia nesciunt voluptatem ut consectetur sed.\nConsequatur deleniti aut.\nEst qui vel quos autem voluptatem.",
      "photoUrl": "http://lorempixel.com/640/480/city",
      "created": "2015-05-16T02:49:54.298Z",
      "updated": "2015-04-08T02:16:37.789Z",
      "event": false
    },
    {
      "id": 14,
      "center": "Polo Danilo do Sul",
      "title": "District Intranet Associate",
      "caption": "Consequatur ea vel.",
      "text": "Dolorem ipsam numquam libero officiis repellat placeat veniam et.\nAsperiores a ad quae ex.\nOfficia recusandae dolores exercitationem iste.\n \rMinima est magni consequatur animi necessitatibus.\nHarum assumenda veritatis dolore et vel in.\nAut perferendis accusantium ut molestiae beatae.\n \rFugiat at molestiae iure in ratione sapiente sunt quo accusantium.\nDelectus quod eius eveniet.\nPossimus ut facere alias illo in qui in quis maiores.",
      "photoUrl": "http://lorempixel.com/640/480/nature",
      "created": "2016-01-08T16:32:46.986Z",
      "updated": "2015-06-10T04:54:07.811Z",
      "event": true
    },
    {
      "id": 15,
      "center": "Polo Moreira do Sul",
      "title": "Product Directives Engineer",
      "caption": "Eaque nemo sint voluptatem vel ut voluptatem hic eum fuga.",
      "text": "Ut sed dolore.\nMagni ut explicabo aspernatur ut occaecati quis.\nVoluptatem enim et debitis.\nAut nulla iure.\n \rConsequatur autem aperiam recusandae.\nUt dolorum saepe.\nAd qui fugiat animi quas consequatur reiciendis quia architecto.\nPorro minima doloribus quo laboriosam.\nPorro et eveniet cumque aut consequatur.\n \rVoluptatum quos iste.\nId omnis sequi.\nAb nesciunt numquam placeat delectus.\nDeserunt labore at est et illo.\nEius quisquam et vero qui qui vitae.\nSoluta nemo quibusdam id eum veritatis nesciunt distinctio.",
      "photoUrl": "http://lorempixel.com/640/480/nature",
      "created": "2016-01-28T05:27:22.592Z",
      "updated": "2015-09-16T23:02:14.114Z",
      "event": false
    },
    {
      "id": 16,
      "center": "Polo Velha Ofélia",
      "title": "International Usability Liason",
      "caption": "Eius magnam velit dolorem in aut.",
      "text": "Cumque eos minima consequuntur animi voluptatum perspiciatis occaecati quidem ut.\nAmet similique odio aspernatur quia voluptatem aut dolores.\nDolores est soluta veritatis est.\nNesciunt voluptas rem at qui sint.\nQuam molestias doloremque repudiandae sunt et corporis qui consequatur ipsa.\n \rNumquam itaque facere natus consequatur dolore ut reprehenderit quis.\nCommodi iusto qui beatae itaque ab illo.\nLibero et vel consectetur ut distinctio eius.\nEnim quaerat ut est fugit illum.\n \rQuaerat iusto dolore et autem nesciunt odio quas.\nAspernatur libero fugit optio vel in dicta nisi.\nNihil qui eius voluptatum quae saepe et.\nEsse nemo et.\nUnde maxime veritatis eius vel est et.\nQui maiores perspiciatis quos culpa temporibus.",
      "photoUrl": "http://lorempixel.com/640/480/animals",
      "created": "2015-06-16T22:14:08.852Z",
      "updated": "2015-03-15T06:10:35.690Z",
      "event": true
    },
    {
      "id": 17,
      "center": "Polo Moreira de Nossa Senhora",
      "title": "National Communications Supervisor",
      "caption": "Quos necessitatibus ut neque sint omnis cum nulla minus quod.",
      "text": "In aut nobis dolorem aperiam omnis ea dolorem voluptas.\nModi quae voluptatibus hic cupiditate at facilis.\nHarum aut quae quis est eum et aut suscipit impedit.\nVoluptatem molestias sed tenetur aut.\n \rUllam aut sint quae error.\nCorporis aut nam expedita aperiam qui non rem.\nSunt fugiat cupiditate porro exercitationem minus velit.\nHic ipsa nam odio.\nConsequatur aut quia non in est quibusdam tenetur.\nLaudantium eum placeat alias dolor.\n \rEt dolores ad voluptas odio non molestiae et quidem labore.\nPorro ut illo sed.\nVel laudantium qui quaerat sunt.\nMolestiae a ducimus.\nDoloremque temporibus aut quis labore.",
      "photoUrl": "http://lorempixel.com/640/480/food",
      "created": "2015-10-17T10:28:42.026Z",
      "updated": "2015-08-25T17:18:37.791Z",
      "event": false
    },
    {
      "id": 18,
      "center": "Polo Santos do Descoberto",
      "title": "Chief Configuration Engineer",
      "caption": "Inventore tenetur dignissimos quis libero.",
      "text": "Quia officia architecto ipsa pariatur.\nRepellat tenetur laboriosam ipsum.\nRepudiandae qui ipsa et ratione quia molestiae provident a quisquam.\n \rQuaerat aliquid magni.\nUt vitae eos ducimus ut minus autem.\nQui qui ducimus odit aliquid soluta ipsam.\nEnim necessitatibus rerum quaerat.\nMinus suscipit sint expedita.\n \rSunt aliquam rem nihil aut unde ut itaque accusamus ea.\nOfficia qui nam dolorem.\nSuscipit et fuga fugiat ipsam culpa magnam sint.",
      "photoUrl": "http://lorempixel.com/640/480/cats",
      "created": "2016-01-27T18:51:10.202Z",
      "updated": "2015-05-09T16:51:58.597Z",
      "event": false
    },
    {
      "id": 19,
      "center": "Polo Velha Danilo",
      "title": "Lead Accountability Facilitator",
      "caption": "Qui est repellat nemo eum enim vero porro natus.",
      "text": "Fugit dolores nemo eius non dolore id vitae.\nSed voluptates a quia aut labore nam in.\nReprehenderit quae excepturi maxime minus vel velit.\n \rFugit soluta tempore.\nAutem laborum quam voluptatem nulla consequatur atque voluptas.\nCorrupti dolorem quia.\nVoluptatum libero vitae impedit.\nTempora neque sint tenetur nostrum laudantium id omnis qui animi.\nReiciendis inventore unde nulla blanditiis pariatur ut reprehenderit distinctio.\n \rOmnis aliquam aliquid.\nSequi ea quidem mollitia ut ut quasi delectus sint numquam.\nOptio est porro dolorem consequatur quam id distinctio modi aut.\nAut numquam nihil.",
      "photoUrl": "http://lorempixel.com/640/480/technics",
      "created": "2015-11-07T09:30:29.692Z",
      "updated": "2015-10-29T17:14:34.616Z",
      "event": true
    },
    {
      "id": 20,
      "center": "Polo Município de Marcela de Nossa Senhora",
      "title": "Central Identity Designer",
      "caption": "Eum exercitationem perferendis quo cum quidem harum.",
      "text": "Aut fuga molestias minima reiciendis ducimus voluptas facilis sapiente incidunt.\nMaiores eos sed impedit tempore et excepturi.\nConsectetur porro nihil voluptatem et ut.\nOdio nostrum laudantium vel a distinctio tempora perspiciatis incidunt iusto.\n \rUllam maiores cupiditate.\nQuae facere reiciendis aut porro doloribus veniam labore eum libero.\nAliquid sed eaque voluptatem voluptatibus perferendis.\nVoluptatibus voluptate nostrum repellendus.\nExercitationem quia velit perferendis sint praesentium enim omnis aut.\nDolores sapiente libero consequatur natus voluptatem debitis quia.\n \rExcepturi est animi aliquid sint voluptatem delectus ut et commodi.\nFugiat nulla ad officia alias adipisci sit animi.\nVel voluptatum excepturi dolores similique quasi sapiente ullam animi.\nVero iusto hic.",
      "photoUrl": "http://lorempixel.com/640/480/fashion",
      "created": "2015-08-30T00:43:30.347Z",
      "updated": "2015-08-26T08:20:47.941Z",
      "event": true
    },
    {
      "id": 21,
      "center": "Polo Nataniel do Descoberto",
      "title": "Forward Research Assistant",
      "caption": "Odio eaque aperiam odit eum et distinctio ut.",
      "text": "Et quidem debitis corporis saepe ea.\nLaudantium non earum consequuntur nostrum blanditiis consequatur amet hic veritatis.\nA ut qui laudantium voluptatem molestiae dolorum quam.\nEt qui quo veniam.\nVeritatis consectetur impedit perspiciatis accusantium deleniti est.\nQuis enim voluptatum id optio eligendi quam ut labore.\n \rDelectus deleniti quisquam molestias sed eos doloribus natus et.\nNam accusantium id nihil cumque.\nOfficia accusantium eius autem repellendus omnis non.\nModi beatae esse architecto neque aut est voluptatum ipsam et.\nEt eos necessitatibus illo enim maxime magnam quaerat.\n \rQuia et eum rerum.\nUt id cumque esse.\nMaiores dolor veritatis quae.",
      "photoUrl": "http://lorempixel.com/640/480/food",
      "created": "2015-03-17T09:28:24.941Z",
      "updated": "2015-12-11T17:27:00.759Z",
      "event": false
    },
    {
      "id": 22,
      "center": "Polo Silva de Nossa Senhora",
      "title": "Chief Solutions Officer",
      "caption": "Vel possimus provident qui quis at qui delectus incidunt.",
      "text": "Sequi repellat enim est unde.\nQuam quia ea voluptate.\nSequi vel quia est.\nDucimus earum et quas culpa placeat omnis voluptatem.\nExplicabo architecto tempore sapiente.\nUt illum autem est ipsum ea.\n \rIpsam enim et omnis sit dolor numquam.\nSint velit nemo praesentium aliquam fugiat ducimus.\nVoluptate ipsa id ut architecto totam.\nNemo est cupiditate fugit repellendus autem libero molestiae quae.\nAut omnis laboriosam sint est quo fugit aspernatur aliquid.\n \rDeleniti consequatur et dolores nam sed est voluptas repellendus consequatur.\nAut reprehenderit sed esse.\nEum minima architecto.",
      "photoUrl": "http://lorempixel.com/640/480/nature",
      "created": "2015-05-05T12:32:34.757Z",
      "updated": "2015-10-11T17:49:46.003Z",
      "event": true
    },
    {
      "id": 23,
      "center": "Polo Alessandra do Descoberto",
      "title": "Senior Identity Planner",
      "caption": "Harum sit illum saepe dolorem autem ipsum.",
      "text": "Nam ipsam veritatis est reprehenderit quo porro voluptatem laboriosam.\nMolestias dolore qui doloribus maxime officiis id quisquam in non.\nDolor alias repudiandae voluptatum iste.\nPerspiciatis corrupti natus et quibusdam iste consequatur ipsum eligendi.\n \rMolestiae voluptas ab quasi velit ducimus voluptatem nihil.\nRepudiandae sed ut.\nEarum rerum ut ipsum facere sint nam natus nemo aliquid.\nQuae veniam neque optio.\nDolore optio debitis.\nQuisquam aut illum voluptas aut nostrum ut pariatur.\n \rAsperiores nihil iusto optio natus.\nVoluptas facilis in minima tenetur vel et pariatur.\nMaxime qui voluptas.\nDolor saepe sit sed ipsa incidunt beatae et animi delectus.\nAut ea quos quisquam molestias vero qui beatae dolor.",
      "photoUrl": "http://lorempixel.com/640/480/transport",
      "created": "2015-07-06T21:26:25.484Z",
      "updated": "2015-07-31T08:00:30.374Z",
      "event": false
    },
    {
      "id": 24,
      "center": "Polo Alessandra do Descoberto",
      "title": "Internal Identity Coordinator",
      "caption": "Dolor sunt fugit.",
      "text": "Sit tenetur ducimus ut voluptatem officia.\nQui ipsum eum quo.\nEum quibusdam placeat ut porro est repudiandae.\nAlias natus eveniet quisquam pariatur.\n \rQuae est et aut voluptas quasi consequatur id quia.\nPerspiciatis quo amet sed soluta omnis iusto repudiandae et.\nQuia ut culpa non fugiat eum voluptate architecto veritatis.\nQuos ipsam dolor.\nReiciendis eum voluptatem ut eum quia.\n \rDistinctio dolores culpa tempore eveniet sunt in odio.\nBlanditiis dolor labore nam.\nSunt facere officia corporis.\nMagnam ipsa exercitationem.\nQuas porro inventore provident perferendis perspiciatis molestiae dolores.\nNumquam fuga aut est tempore esse sit optio ipsam.",
      "photoUrl": "http://lorempixel.com/640/480/transport",
      "created": "2016-01-05T08:10:12.334Z",
      "updated": "2015-11-10T04:16:10.230Z",
      "event": true
    },
    {
      "id": 25,
      "center": "Polo Melo do Norte",
      "title": "Forward Research Producer",
      "caption": "Enim omnis facilis autem.",
      "text": "Asperiores voluptatem quis libero odio eius ipsam consequatur placeat.\nMinima possimus corporis excepturi quo.\nAt quis tempore reprehenderit incidunt quam iste itaque consectetur.\nFugit dolores numquam animi eius molestias iure suscipit.\nArchitecto delectus autem.\nDolores itaque eos occaecati.\n \rIusto ut necessitatibus enim ducimus aut.\nOmnis aut doloremque ipsam non voluptas ipsum.\nDebitis non qui quasi ipsam incidunt cumque expedita corrupti excepturi.\n \rFugit maiores commodi magni architecto exercitationem rerum accusantium modi sapiente.\nAssumenda veritatis libero repellendus.\nVoluptas velit soluta quis laborum maiores ut ea necessitatibus.\nAut molestias hic dolore magnam delectus ipsum repellendus ea.",
      "photoUrl": "http://lorempixel.com/640/480/city",
      "created": "2016-02-06T12:19:22.409Z",
      "updated": "2015-06-05T14:30:49.324Z",
      "event": false
    },
    {
      "id": 26,
      "center": "Polo Nataniel do Descoberto",
      "title": "Future Infrastructure Liason",
      "caption": "Enim facere id adipisci aut ea eius fugiat.",
      "text": "Qui pariatur ea et non ut architecto aspernatur.\nFugiat corporis repellendus dolor nostrum officiis.\nCommodi molestiae id ad.\nAut sit ipsam sed at ut enim minima quia rem.\n \rA incidunt nulla.\nMolestiae doloremque nemo ea neque quam voluptatem exercitationem.\nA ullam quo occaecati.\nVoluptas deleniti minus.\nEligendi aperiam et.\n \rQuisquam et sed et et in enim quia molestias.\nQuibusdam quisquam inventore ab expedita dolorum delectus.\nId perspiciatis enim aut nisi.\nModi numquam nesciunt.",
      "photoUrl": "http://lorempixel.com/640/480/fashion",
      "created": "2015-09-04T11:58:10.405Z",
      "updated": "2015-06-28T10:49:07.543Z",
      "event": true
    },
    {
      "id": 27,
      "center": "Polo Melo do Norte",
      "title": "Future Configuration Assistant",
      "caption": "Totam quia amet et consequuntur et quaerat voluptatum odio quos.",
      "text": "Magnam est qui ipsam at earum eaque.\nImpedit ut praesentium sapiente dicta laboriosam.\nNecessitatibus tenetur fugiat dolores maxime odit dolor animi.\nNam minus et.\nAut et atque rem quos odio aut non voluptatibus ut.\nRem ex sit odit veniam aut.\n \rEos consequatur quidem commodi ab quisquam inventore quia rem.\nLaboriosam accusantium aut odio et voluptatem autem id voluptatibus.\nNecessitatibus et possimus et est ex autem.\nIpsam dicta dolor consequatur neque aliquam illo.\nCupiditate quos et inventore sed et culpa beatae.\n \rEt sunt consequatur.\nQuae a nihil non tempore voluptatem autem consequatur dolore nisi.\nA quos suscipit corporis.",
      "photoUrl": "http://lorempixel.com/640/480/people",
      "created": "2015-05-13T11:46:53.482Z",
      "updated": "2015-06-28T22:07:31.541Z",
      "event": false
    },
    {
      "id": 28,
      "center": "Polo Yango do Sul",
      "title": "Human Functionality Orchestrator",
      "caption": "Dicta dolorem corrupti.",
      "text": "Necessitatibus rerum atque in dolore quidem voluptate.\nVoluptatem provident aut in.\nEt incidunt nihil.\nRecusandae dolorem soluta ut fuga tenetur itaque impedit.\nAut doloribus voluptatem quis.\nIpsa voluptatibus omnis.\n \rDistinctio quae eaque et.\nQuia eius numquam a laboriosam recusandae.\nUt facere dolores et dignissimos odit.\n \rDolore aliquam sed eos fuga id.\nSaepe fugit voluptate dolores.\nQuasi dolorem modi necessitatibus iure aut accusantium officiis in odit.\nQuam enim dolorum eveniet sunt aut cumque dolorem quibusdam occaecati.",
      "photoUrl": "http://lorempixel.com/640/480/food",
      "created": "2015-06-20T02:47:35.252Z",
      "updated": "2015-05-05T12:55:14.682Z",
      "event": false
    },
    {
      "id": 29,
      "center": "Polo Barros do Descoberto",
      "title": "Principal Markets Analyst",
      "caption": "Et dolorem voluptate natus rerum nulla sed ut et.",
      "text": "Ab omnis hic voluptatem iste.\nQuasi dicta magnam quos corporis.\nUt aperiam quia iste omnis ratione voluptatum ea ad.\n \rQui recusandae animi suscipit dolorem fuga molestiae eaque.\nEst facilis distinctio minus quisquam.\nQui cum excepturi iusto culpa in.\nQuod suscipit est.\n \rCorrupti reiciendis incidunt ab molestias eos ex magnam.\nEst numquam adipisci id.\nNatus sed voluptas et est vel et neque autem.\nEst perspiciatis ab est totam esse quo.\nModi deserunt non libero in eos esse quo enim consequuntur.",
      "photoUrl": "http://lorempixel.com/640/480/people",
      "created": "2015-04-03T23:47:56.753Z",
      "updated": "2015-11-13T21:12:10.318Z",
      "event": false
    },
    {
      "id": 30,
      "center": "Polo Moreira do Sul",
      "title": "Senior Integration Supervisor",
      "caption": "Omnis ut cupiditate corporis consequuntur ratione iusto repellat.",
      "text": "Sequi recusandae pariatur laborum ducimus.\nQui eum quis doloremque enim.\nHic voluptatibus animi.\nEt nemo perspiciatis.\nOccaecati quas est velit nihil.\nPariatur ipsam sed in animi sunt expedita.\n \rEst deleniti aspernatur consequatur dolorem aut numquam tempore soluta aut.\nBeatae est voluptas ea molestiae rerum delectus impedit voluptatum vel.\nEt dolores et nihil sunt doloremque reprehenderit quod.\nConsequatur molestiae ea maiores laudantium.\nAut eos non exercitationem et inventore autem sunt nisi et.\nCum iste dolor delectus ratione et ut autem sed.\n \rSimilique iste et iure dolor omnis eum.\nIpsum qui atque aliquam et ut adipisci optio cupiditate.\nAut sed ducimus.\nVelit cupiditate ab.\nFugit tempora debitis laudantium est.\nSit nostrum nam cumque eos.",
      "photoUrl": "http://lorempixel.com/640/480/city",
      "created": "2015-07-13T17:15:29.669Z",
      "updated": "2015-12-17T13:43:52.287Z",
      "event": true
    },
    {
      "id": 31,
      "center": "Polo Melo de Nossa Senhora",
      "title": "Product Response Representative",
      "caption": "Quas labore impedit aut placeat maiores dignissimos.",
      "text": "Qui vel optio dolorem blanditiis incidunt distinctio eaque.\nDebitis architecto aspernatur laborum molestiae quis non voluptas ad non.\nAd deserunt sint et rerum molestiae.\nSit est impedit voluptatem eum quo odit hic voluptatem sed.\nSuscipit at saepe necessitatibus est aut.\nDicta et et qui ut sint.\n \rQuia qui dolorem magni consectetur delectus quam.\nEst asperiores eaque at veniam numquam aperiam impedit suscipit doloremque.\nQui saepe ut ab est nostrum laudantium delectus perferendis.\nQuidem odit consequatur necessitatibus sapiente.\n \rLaborum similique voluptas excepturi nisi et.\nDoloremque atque nihil quod.\nTempore deleniti quia quae dolorem perspiciatis et sequi.\nDistinctio eum pariatur excepturi sed consequatur corrupti facilis voluptatum.\nId sit aut a quo consequatur sed quos sequi accusamus.",
      "photoUrl": "http://lorempixel.com/640/480/cats",
      "created": "2016-02-23T15:07:30.266Z",
      "updated": "2016-02-23T16:49:51.168Z",
      "event": false
    },
    {
      "id": 32,
      "center": "Polo Vila Lorena",
      "title": "Senior Implementation Assistant",
      "caption": "Vero ipsum est quis nam asperiores.",
      "text": "Quisquam aperiam dolor.\nQuisquam quas quibusdam unde rem.\nImpedit minus ullam placeat nihil voluptatem.\nQuod in ab quaerat.\nUt sint dolor possimus aut ex inventore accusantium molestias suscipit.\n \rConsequatur voluptas et quam et fugiat.\nUt saepe aspernatur voluptatibus numquam totam eius.\nUllam totam in quia consequuntur.\nDeserunt dicta atque ullam nam autem unde vitae.\nEius suscipit dignissimos iste.\nEst fuga velit rerum maxime deserunt.\n \rRepellat nam velit non.\nTempore tempora harum sed ducimus incidunt dolores sint.\nTenetur voluptatum nobis est asperiores aut sed eum officiis quia.",
      "photoUrl": "http://lorempixel.com/640/480/nightlife",
      "created": "2015-10-13T16:34:17.984Z",
      "updated": "2015-08-22T07:25:30.862Z",
      "event": false
    },
    {
      "id": 33,
      "center": "Polo Barros do Descoberto",
      "title": "Global Optimization Executive",
      "caption": "Nostrum debitis porro minus vitae sunt odio.",
      "text": "Commodi ut eaque eum rem et odit voluptas mollitia vel.\nConsectetur deserunt fugiat omnis eum.\nQuidem sed cum quis ea iure non maxime.\nCulpa deserunt recusandae.\nOfficiis animi ad harum aliquid voluptas libero dolorum.\nSit earum beatae laudantium et esse.\n \rDolores molestias perspiciatis cupiditate enim porro.\nExplicabo vitae id.\nNecessitatibus expedita non sunt autem.\nPossimus dolorem fuga rerum iure labore.\n \rSit molestiae animi quas consectetur dolores quia itaque impedit.\nOfficia debitis quos quia rem ipsam hic veniam.\nDucimus qui tempore cum quia iste.\nAccusantium et quaerat veritatis aliquam et ut.\nAccusamus et eligendi est corporis in in reiciendis.",
      "photoUrl": "http://lorempixel.com/640/480/business",
      "created": "2015-04-14T09:34:23.248Z",
      "updated": "2015-11-09T18:50:22.240Z",
      "event": true
    },
    {
      "id": 34,
      "center": "Polo Melo de Nossa Senhora",
      "title": "Investor Response Administrator",
      "caption": "Quae suscipit quibusdam repellendus iure eligendi nisi et deleniti.",
      "text": "Veritatis reprehenderit quasi quo fugit enim saepe omnis corrupti.\nUt sed itaque et ut consequuntur officiis porro.\nId vero occaecati modi maiores molestiae laboriosam.\nIpsam occaecati dicta rerum sit blanditiis corrupti laborum non qui.\nExercitationem non aut ea rerum sit vel adipisci ad.\n \rDolore incidunt dolores voluptas nulla maiores.\nAliquid nemo perferendis sed id nulla voluptatem amet quisquam.\nQuos deserunt accusamus quas consectetur esse et.\nNobis doloremque praesentium qui odio ut.\n \rCommodi ad dignissimos ut tenetur maiores unde voluptatibus neque.\nQuisquam aperiam adipisci tempore animi ut maxime enim ut.\nDolorem rerum voluptatem sunt libero at eaque iure quia.\nQuidem hic illo perspiciatis.\nCulpa ut similique repudiandae.",
      "photoUrl": "http://lorempixel.com/640/480/sports",
      "created": "2015-06-23T15:04:56.607Z",
      "updated": "2015-11-10T14:51:28.321Z",
      "event": true
    },
    {
      "id": 35,
      "center": "Polo Vila João",
      "title": "Customer Intranet Architect",
      "caption": "Quae perferendis alias molestiae quaerat.",
      "text": "In sunt error sunt architecto odit enim praesentium.\nPerspiciatis totam est.\nMinima repudiandae sequi eveniet vel vero amet architecto corporis.\n \rAlias possimus placeat et sequi.\nVitae ut dolor animi in sint omnis et autem iusto.\nUt qui qui sint perspiciatis debitis sed et voluptatem itaque.\n \rQuas maxime ut labore eveniet.\nVel ut quidem perferendis quas numquam aliquid autem.\nEt est sed quia aliquam quia earum nobis reiciendis quo.",
      "photoUrl": "http://lorempixel.com/640/480/transport",
      "created": "2015-05-11T02:40:58.751Z",
      "updated": "2015-10-06T19:32:15.026Z",
      "event": true
    },
    {
      "id": 36,
      "center": "Polo Vila Aline",
      "title": "Corporate Mobility Facilitator",
      "caption": "Ad sequi sit adipisci totam minima placeat quis.",
      "text": "Quis voluptatum dolor qui error et.\nIste dolores vero nulla quo.\nSapiente tempore amet voluptatum non ipsa.\nCumque voluptatem soluta nihil vitae voluptates.\n \rDolorem dicta quas molestiae quisquam a.\nCumque voluptatem quo debitis vero et quisquam vel nesciunt.\nUt veniam voluptas et ea incidunt cupiditate.\nVoluptate quibusdam animi vero enim cum est vel velit.\nDicta consequatur et.\nEst et ipsa eum animi molestiae.\n \rVoluptatem provident nihil.\nEum alias beatae similique.\nUt saepe repellat illum maxime quia repudiandae.",
      "photoUrl": "http://lorempixel.com/640/480/business",
      "created": "2015-11-25T01:54:32.544Z",
      "updated": "2016-01-30T06:27:52.563Z",
      "event": true
    },
    {
      "id": 37,
      "center": "Polo Município de Marcela de Nossa Senhora",
      "title": "District Branding Officer",
      "caption": "Facilis veniam sint accusamus earum vitae molestias ut.",
      "text": "Ratione eos fuga aliquid consequuntur deserunt magni.\nOdio nisi cupiditate id voluptatem.\nPlaceat voluptas incidunt magnam.\nNon laboriosam quia.\n \rAut velit nihil quam.\nConsectetur provident qui unde ut.\nNeque amet sed.\nNon officia vel qui sint sit eligendi unde et officiis.\nNisi voluptatem et et cum enim sit.\nError nisi consequatur nam eum neque earum qui consequuntur consequatur.\n \rAutem natus corporis at nam unde non minus voluptatem.\nNobis voluptatum id sit consequuntur sequi.\nQui aspernatur cumque esse.\nDeserunt ut similique totam voluptate illum omnis recusandae cum.\nRerum et aut sint molestiae sequi quaerat quas omnis sed.",
      "photoUrl": "http://lorempixel.com/640/480/animals",
      "created": "2015-06-09T13:49:48.340Z",
      "updated": "2016-01-18T16:01:45.313Z",
      "event": false
    },
    {
      "id": 38,
      "center": "Polo Vila Aline",
      "title": "Direct Usability Supervisor",
      "caption": "Cumque error sunt.",
      "text": "Exercitationem dolores consequatur id quas accusantium omnis.\nUt numquam quam laudantium tempore saepe.\nFugit et iure repudiandae libero.\nUllam id unde quibusdam quidem iure ex enim praesentium.\n \rConsequuntur eum distinctio hic soluta omnis molestiae.\nAutem fugiat quasi.\nSuscipit assumenda sint alias et cumque est eaque laudantium.\nDoloribus modi accusantium ea.\nAt corporis fugit.\nQuia dolor quos illum.\n \rEnim qui ut reprehenderit.\nOccaecati maxime autem quia quo ut.\nUt nulla et repellendus fugit.\nProvident quidem voluptatem dolorem odio.",
      "photoUrl": "http://lorempixel.com/640/480/transport",
      "created": "2015-05-02T18:14:29.069Z",
      "updated": "2015-08-20T11:38:00.233Z",
      "event": false
    },
    {
      "id": 39,
      "center": "Polo Alessandra do Descoberto",
      "title": "Lead Research Liason",
      "caption": "Eum quisquam quos quo ipsum doloribus numquam.",
      "text": "Maiores et quasi nisi sed quibusdam adipisci officiis quam quos.\nMolestiae nostrum sit rerum rerum et sapiente velit.\nEos nam aspernatur consectetur minima.\nNam et sit eum fugiat dolor.\n \rNihil maxime optio sint consequatur.\nIllo ut omnis inventore vitae aliquid voluptas laudantium.\nEt sed ut placeat quam beatae repellendus commodi et eum.\nDeserunt assumenda ipsum repellat earum quam quia alias.\nSunt quia quam beatae sit.\nCorrupti ut quia.\n \rRatione vitae deleniti vero modi quibusdam voluptatem distinctio.\nMinima non illo odio quibusdam nostrum tenetur ipsam molestiae.\nDolor placeat vel.\nEst eligendi non ducimus dolorem qui in quidem vel sed.\nTempora beatae ut assumenda nisi ducimus aut quam.",
      "photoUrl": "http://lorempixel.com/640/480/nature",
      "created": "2015-06-15T19:43:24.719Z",
      "updated": "2015-07-09T08:37:33.125Z",
      "event": true
    },
    {
      "id": 40,
      "center": "Polo Alessandra do Descoberto",
      "title": "Global Marketing Architect",
      "caption": "Aut pariatur unde aut ex et ipsa eos ratione sequi.",
      "text": "Ea ullam libero culpa eos tempora voluptatem voluptatibus.\nAspernatur delectus sunt repellat.\nEt ullam aut expedita iste dolore.\nAliquam ab est.\nAccusamus dolorum aspernatur expedita nulla neque quasi explicabo.\nMollitia non non et distinctio voluptates ea.\n \rRerum corrupti aut error sed ipsam voluptatum omnis.\nEst eos minima reiciendis nesciunt.\nNecessitatibus eum voluptas.\nFacere nemo beatae eligendi aliquid voluptate.\nDeserunt ea facilis.\nCum porro doloribus tempore doloremque enim sint mollitia vel.\n \rNemo et nulla aut.\nEa vitae labore nostrum laborum consequuntur voluptas quis dolorem.\nVoluptatem eaque veritatis deserunt sint qui et beatae.\nNeque unde accusamus deleniti doloribus sunt quisquam vel.\nMaiores enim quo error consequuntur neque architecto maxime sint.\nEnim nulla minima ea sint qui error sunt.",
      "photoUrl": "http://lorempixel.com/640/480/animals",
      "created": "2015-04-18T05:53:23.989Z",
      "updated": "2015-04-18T17:10:41.785Z",
      "event": true
    },
    {
      "id": 41,
      "center": "Polo Velha Washington",
      "title": "Dynamic Intranet Analyst",
      "caption": "Vero fugiat minima eos consectetur earum praesentium iste voluptas repellendus.",
      "text": "Soluta libero ab facilis aperiam beatae aliquid.\nRepellendus velit iusto consequatur enim pariatur.\nPlaceat sapiente quasi.\n \rIure numquam deleniti praesentium inventore rem quasi.\nDignissimos corporis porro illum sint impedit non.\nCum corporis natus porro.\n \rEt laudantium aut quis.\nIure ut et aut quis.\nNatus praesentium dolores optio.\nAut sint nihil voluptates.\nNon error possimus.",
      "photoUrl": "http://lorempixel.com/640/480/sports",
      "created": "2015-05-06T19:19:11.731Z",
      "updated": "2016-02-04T08:02:51.137Z",
      "event": true
    },
    {
      "id": 42,
      "center": "Polo Município de Marcela de Nossa Senhora",
      "title": "Customer Metrics Designer",
      "caption": "Eius fuga dolorum aperiam nam ratione laboriosam.",
      "text": "Molestiae magnam tenetur consequatur quo occaecati.\nInventore repellendus libero quos et hic veritatis laboriosam animi.\nUt laudantium dicta velit quae commodi.\nUnde aut modi quisquam consequuntur.\n \rSint tempora delectus eligendi magni aut qui cupiditate sed.\nEnim dolor et delectus quia ex.\nIure totam quae asperiores et consequatur.\nRerum minus dolorum aspernatur molestiae qui similique debitis sit.\nDolorum sit quasi beatae ipsa et quia consequatur a.\nConsectetur tenetur sed et tempora.\n \rEt magnam et pariatur dolore fuga iure reiciendis.\nIusto omnis iure in eligendi consequatur.\nHarum provident rerum.",
      "photoUrl": "http://lorempixel.com/640/480/technics",
      "created": "2015-10-28T18:14:27.992Z",
      "updated": "2016-02-15T18:17:49.408Z",
      "event": false
    },
    {
      "id": 43,
      "center": "Polo Vila Aline",
      "title": "Legacy Program Officer",
      "caption": "Aperiam consectetur vel omnis consequatur adipisci consequatur.",
      "text": "Corrupti et veniam deserunt.\nSunt molestias quia incidunt eos quo.\nPorro rerum dolor non ea fugiat.\n \rMinima quod similique dolor asperiores deleniti.\nEligendi deserunt et tempore similique.\nVoluptas natus et ea tempore quisquam esse ut.\nOmnis similique repellat aut.\nQuas occaecati quos ipsum.\n \rAlias voluptas ut repellat illum voluptatum.\nAliquam nobis iste quo.\nRepudiandae reprehenderit voluptatum.\nAccusamus molestiae impedit dolor.\nMagnam accusantium nihil aut et possimus consequuntur.",
      "photoUrl": "http://lorempixel.com/640/480/nature",
      "created": "2015-06-13T21:18:10.275Z",
      "updated": "2015-07-30T02:26:50.831Z",
      "event": false
    },
    {
      "id": 44,
      "center": "Polo Xavier do Sul",
      "title": "Product Paradigm Specialist",
      "caption": "Saepe repellat enim ipsa qui sunt voluptatem.",
      "text": "Aut consectetur ut eos commodi quia.\nIure vel omnis qui molestiae rem non rerum.\nVoluptas aut totam iusto ad voluptatem.\nAutem ipsa quia delectus vitae molestias minus.\nA quia id sed numquam vero voluptate.\n \rEa omnis numquam aliquid expedita quia et aut iure alias.\nQui officia minima mollitia dolor veniam doloribus quisquam impedit reiciendis.\nQuia sunt natus hic eum.\nCum nesciunt natus eveniet aut.\nNesciunt et iusto at nihil aut aut vitae.\n \rQuia eos adipisci inventore voluptate reprehenderit assumenda.\nAut impedit numquam non quibusdam incidunt.\nUt blanditiis dolorum.\nEnim dolore facere doloremque itaque mollitia qui consectetur.",
      "photoUrl": "http://lorempixel.com/640/480/abstract",
      "created": "2015-09-30T01:10:20.972Z",
      "updated": "2015-03-10T12:00:47.008Z",
      "event": true
    },
    {
      "id": 45,
      "center": "Polo Município de Marcela de Nossa Senhora",
      "title": "Direct Research Liason",
      "caption": "Aut nam rerum.",
      "text": "Voluptatem voluptas nihil dicta nam dolores corrupti numquam eaque aut.\nUt fuga nemo expedita.\nQui ut molestiae quidem ut ut possimus.\nEum cupiditate saepe.\nAccusantium illum quod nam id in perferendis.\n \rNihil sint labore earum.\nVoluptatibus itaque eligendi minus aperiam autem pariatur repellat enim.\nEt nam repellat voluptatem maxime.\nRepudiandae quam unde et aliquid.\n \rDoloremque exercitationem inventore.\nAt ut dolorem expedita ut earum.\nDeleniti ut voluptatum.",
      "photoUrl": "http://lorempixel.com/640/480/transport",
      "created": "2016-03-06T13:06:21.514Z",
      "updated": "2015-04-21T07:56:50.475Z",
      "event": false
    },
    {
      "id": 46,
      "center": "Polo Melo de Nossa Senhora",
      "title": "Principal Usability Coordinator",
      "caption": "Doloribus mollitia quia et est molestiae.",
      "text": "Corporis repellat repudiandae itaque.\nQuia minima voluptate eum iste praesentium enim hic magnam.\nBlanditiis molestias nemo.\nAut vero dolorem corrupti.\n \rUt minus voluptatibus nulla praesentium.\nEnim sed ut.\nLabore odio nam ut ad impedit sit.\nDucimus enim tempore deleniti sed ad.\n \rEaque aspernatur voluptatem voluptates dolores exercitationem necessitatibus pariatur expedita.\nQui occaecati est exercitationem voluptates.\nRatione minus rerum.\nSapiente debitis reiciendis.",
      "photoUrl": "http://lorempixel.com/640/480/people",
      "created": "2015-07-21T23:45:41.851Z",
      "updated": "2015-08-03T04:17:42.911Z",
      "event": true
    },
    {
      "id": 47,
      "center": "Polo Município de Marcela de Nossa Senhora",
      "title": "Lead Marketing Supervisor",
      "caption": "Consequatur quos molestias dolorem est.",
      "text": "Repudiandae nobis laudantium voluptas fuga quibusdam inventore.\nSaepe dolorem laboriosam.\nAliquam amet repellat earum possimus.\nOmnis sunt et quia dolor explicabo cum ea debitis.\nDistinctio tempore modi maxime quisquam veritatis sed pariatur ea eum.\n \rDistinctio qui qui ea quia eos earum sunt.\nEt saepe sint velit voluptates.\nIllo vel quia quia.\nQuibusdam sunt et ipsa quae rem voluptatum.\n \rVeniam qui ut et quia aut enim non.\nError nihil aut culpa exercitationem reprehenderit ex.\nIusto ut sunt libero laudantium dolore sint.\nNon enim voluptates id harum qui nulla recusandae sed voluptatem.",
      "photoUrl": "http://lorempixel.com/640/480/sports",
      "created": "2015-09-24T10:44:41.058Z",
      "updated": "2015-11-30T08:08:16.630Z",
      "event": false
    },
    {
      "id": 48,
      "center": "Polo Rafael de Nossa Senhora",
      "title": "Product Marketing Strategist",
      "caption": "Velit sed tenetur fuga repellat error maiores et soluta quasi.",
      "text": "At quae ipsum amet rerum repellat.\nLaborum voluptates esse.\nQuia quia laborum autem culpa sit perspiciatis.\nMagnam non non enim neque doloremque optio expedita nobis.\n \rVeniam quia atque suscipit.\nEa tenetur quae blanditiis.\nCupiditate et iusto sequi quos non dolor et occaecati.\nDolor est iure provident.\nQuis omnis iste nulla dolorem aut incidunt.\n \rQui autem ut.\nNon iste architecto.\nEveniet voluptatum expedita.\nQuia sit libero recusandae sed cumque.\nEx fugiat odit.",
      "photoUrl": "http://lorempixel.com/640/480/abstract",
      "created": "2015-08-16T05:55:36.029Z",
      "updated": "2015-07-09T11:08:38.640Z",
      "event": true
    },
    {
      "id": 49,
      "center": "Polo Batista do Norte",
      "title": "Internal Web Orchestrator",
      "caption": "Quia eaque incidunt culpa unde accusantium voluptatum consequatur ea repellendus.",
      "text": "Sed et repellat mollitia.\nAccusamus ea numquam saepe enim.\nQuis est ea magni doloremque architecto dolor.\nOdio vel autem illum.\nSint impedit quis omnis ullam.\n \rExercitationem nihil aut dolores quo.\nEt pariatur odit.\nUt soluta quaerat optio.\nQui aut in velit quaerat aut est recusandae harum unde.\nCorporis esse aliquam tempore aut molestiae.\n \rTempore qui laborum.\nMinus rem id temporibus veritatis est officiis accusamus deserunt et.\nVoluptatem et molestiae autem temporibus.\nIllo ea molestias aspernatur quis explicabo.\nIste et eligendi sunt et consequatur mollitia et voluptatem.\nEnim ut esse necessitatibus.",
      "photoUrl": "http://lorempixel.com/640/480/cats",
      "created": "2015-05-12T23:22:42.040Z",
      "updated": "2015-08-01T13:34:08.032Z",
      "event": false
    }
  ]
}