{
  "restaurants": [
    {
      "id": 0,
      "title": "Central Operations Specialist",
      "center": "Polo Grande Rafaela",
      "state": "RS",
      "city": "Vila Joana",
      "neighborhood": "Carla",
      "description": "Natus consequatur sequi consectetur.\nMolestiae natus architecto hic voluptatem nisi aliquid sint.\nQui ipsam qui.\nNihil non sed dolorem quod expedita voluptatem placeat illum.\nSimilique maxime modi eius est labore et vero saepe.",
      "openHours": 53232,
      "address": "9404 Nogueira Alameda",
      "phone": "+55 (72) 2598-9856",
      "M4T": false,
      "photoUrl": "http://lorempixel.com/640/480/business",
      "created": "2015-08-17T03:30:35.684Z",
      "updated": "2015-09-24T18:30:20.473Z",
      "lat": 80.5778,
      "lng": -152.6082
    },
    {
      "id": 1,
      "title": "Customer Mobility Planner",
      "center": "Polo César de Nossa Senhora",
      "state": "MS",
      "city": "Município de Fabiano",
      "neighborhood": "Maria",
      "description": "Qui minima molestiae.\nTotam et quos dolores ut aut.\nReiciendis porro placeat qui illum.\nOdio sunt fugit molestiae at est.\nVel id nihil ut enim.",
      "openHours": 48429,
      "address": "3871 Albuquerque Travessa",
      "phone": "+55 (97) 3129-9120",
      "M4T": false,
      "photoUrl": "http://lorempixel.com/640/480/transport",
      "created": "2015-11-22T01:09:33.357Z",
      "updated": "2015-06-20T18:09:23.010Z",
      "lat": -5.1499,
      "lng": 93.5981
    },
    {
      "id": 2,
      "title": "Chief Operations Producer",
      "center": "Polo Município de Yango",
      "state": "AL",
      "city": "Grande Júlia do Sul",
      "neighborhood": "Marcelo",
      "description": "Nulla deserunt quo in officia nihil.\nSed hic debitis voluptatibus sit voluptatem porro et mollitia.\nConsequatur accusamus nostrum debitis.\nEum illo explicabo.",
      "openHours": 97737,
      "address": "670 Roberto Travessa",
      "phone": "(55) 80721-0334",
      "M4T": false,
      "photoUrl": "http://lorempixel.com/640/480/technics",
      "created": "2015-11-13T22:09:51.294Z",
      "updated": "2015-05-21T04:34:24.070Z",
      "lat": -76.7551,
      "lng": 43.4975
    },
    {
      "id": 3,
      "title": "Customer Security Coordinator",
      "center": "Polo Grande Isabel do Sul",
      "state": "RS",
      "city": "Braga de Nossa Senhora",
      "neighborhood": "Ladislau",
      "description": "A ut non.\nVelit repudiandae rerum quasi soluta adipisci consequatur aut molestias.\nCupiditate sed reiciendis minus.",
      "openHours": 32375,
      "address": "52995 Nataniel Avenida",
      "phone": "(88) 7946-9505",
      "M4T": true,
      "photoUrl": "http://lorempixel.com/640/480/nature",
      "created": "2015-12-05T13:20:10.956Z",
      "updated": "2015-10-29T05:02:15.030Z",
      "lat": 28.0249,
      "lng": 128.7333
    },
    {
      "id": 4,
      "title": "Lead Assurance Supervisor",
      "center": "Polo Grande Célia do Descoberto",
      "state": "PB",
      "city": "Melo de Nossa Senhora",
      "neighborhood": "Hélio",
      "description": "Quasi et delectus sed molestiae.\nRatione molestias itaque fuga.\nDucimus aut similique quod incidunt officiis asperiores ad ut.\nMolestias consequuntur et temporibus voluptate labore aut consequatur.\nVoluptatibus aliquid et enim architecto officia.",
      "openHours": 84325,
      "address": "6187 Mércia Marginal",
      "phone": "(04) 5766-5030",
      "M4T": false,
      "photoUrl": "http://lorempixel.com/640/480/business",
      "created": "2016-02-09T06:48:21.290Z",
      "updated": "2015-11-24T00:59:48.069Z",
      "lat": -77.217,
      "lng": 142.7021
    },
    {
      "id": 5,
      "title": "Principal Accountability Agent",
      "center": "Polo Martins de Nossa Senhora",
      "state": "AP",
      "city": "Velha Marli do Norte",
      "neighborhood": "César",
      "description": "Cupiditate voluptatem autem.\nFuga at illum quasi officiis.\nHarum debitis minus voluptas numquam sunt consequatur voluptatem praesentium accusantium.\nTotam debitis architecto eligendi maxime.",
      "openHours": 26617,
      "address": "952 Silas Marginal",
      "phone": "(48) 9853-2872",
      "M4T": true,
      "photoUrl": "http://lorempixel.com/640/480/food",
      "created": "2015-03-13T01:05:03.325Z",
      "updated": "2015-09-02T00:48:27.137Z",
      "lat": 66.5948,
      "lng": 115.5511
    },
    {
      "id": 6,
      "title": "Corporate Solutions Administrator",
      "center": "Polo Martins de Nossa Senhora",
      "state": "AP",
      "city": "Velha Marli do Norte",
      "neighborhood": "Alessandra",
      "description": "Inventore iusto optio sed officiis qui nisi.\nAspernatur quam eos culpa voluptatem cum sit.\nLaboriosam at saepe qui aut eos sunt repudiandae dolor.\nQuae quasi veniam consequatur cupiditate in aut.\nSoluta officia qui id molestiae.",
      "openHours": 31403,
      "address": "241 Natália Marginal",
      "phone": "(38) 37819-7364",
      "M4T": true,
      "photoUrl": "http://lorempixel.com/640/480/animals",
      "created": "2015-05-02T17:22:22.257Z",
      "updated": "2015-08-18T05:16:58.755Z",
      "lat": 53.3359,
      "lng": 76.6394
    },
    {
      "id": 7,
      "title": "Future Assurance Director",
      "center": "Polo Grande Isabel do Sul",
      "state": "RS",
      "city": "Braga de Nossa Senhora",
      "neighborhood": "Frederico",
      "description": "Est hic voluptatibus quod quidem.\nQui et cupiditate quisquam libero ut possimus.\nQuia id ducimus molestiae nisi quod.\nMolestiae corporis et molestiae est qui.\nNon dolorem qui unde doloremque aut voluptatum est.",
      "openHours": 92962,
      "address": "945 Braga Viela",
      "phone": "(14) 0933-2891",
      "M4T": true,
      "photoUrl": "http://lorempixel.com/640/480/transport",
      "created": "2015-06-17T01:40:30.957Z",
      "updated": "2015-08-08T07:16:55.345Z",
      "lat": 15.262,
      "lng": 114.7114
    },
    {
      "id": 8,
      "title": "Product Directives Agent",
      "center": "Polo Grande Isabel do Sul",
      "state": "RS",
      "city": "Braga de Nossa Senhora",
      "neighborhood": "Carlos",
      "description": "Id soluta cumque rerum ut magni.\nQuisquam excepturi iste laudantium odit iusto dicta esse in quo.\nModi et fugit id.\nEt voluptatibus possimus facilis non et quia dolores ut veniam.\nAut non illo molestias qui.",
      "openHours": 95378,
      "address": "785 Macedo Avenida",
      "phone": "+55 (39) 3072-4325",
      "M4T": false,
      "photoUrl": "http://lorempixel.com/640/480/city",
      "created": "2015-05-11T10:09:34.714Z",
      "updated": "2015-06-08T11:39:34.836Z",
      "lat": -68.7496,
      "lng": 69.8164
    },
    {
      "id": 9,
      "title": "Customer Intranet Developer",
      "center": "Polo Vila Danilo",
      "state": "CE",
      "city": "Pereira de Nossa Senhora",
      "neighborhood": "Yago",
      "description": "Qui officiis omnis rem dolor qui dolores.\nIn dolores quia quaerat soluta necessitatibus.\nTotam minus odit earum voluptatem aperiam officiis modi.\nId voluptas dolorum quis dolore molestiae.\nVoluptate cumque non est.",
      "openHours": 19988,
      "address": "08780 Janaína Rua",
      "phone": "(82) 91284-9058",
      "M4T": false,
      "photoUrl": "http://lorempixel.com/640/480/nightlife",
      "created": "2016-03-03T15:16:34.670Z",
      "updated": "2015-04-27T22:24:13.691Z",
      "lat": 68.7267,
      "lng": 134.5656
    },
    {
      "id": 10,
      "title": "Corporate Implementation Administrator",
      "center": "Polo Moraes do Norte",
      "state": "ES",
      "city": "Batista do Norte",
      "neighborhood": "Joana",
      "description": "Deleniti quis doloremque et quia sequi atque.\nEt aut minus.\nNatus voluptatibus inventore similique non porro.",
      "openHours": 42306,
      "address": "0309 Isabela Rodovia",
      "phone": "+55 (30) 9757-7821",
      "M4T": true,
      "photoUrl": "http://lorempixel.com/640/480/sports",
      "created": "2015-04-13T07:17:19.792Z",
      "updated": "2015-10-01T07:27:54.994Z",
      "lat": -43.8518,
      "lng": -95.9817
    },
    {
      "id": 11,
      "title": "Dynamic Quality Producer",
      "center": "Polo César de Nossa Senhora",
      "state": "MS",
      "city": "Município de Fabiano",
      "neighborhood": "Marli",
      "description": "Nihil et rerum impedit illo esse commodi repudiandae enim.\nDolores minus dolorem aliquam beatae provident voluptates et ut.\nRecusandae voluptates id quibusdam sed optio exercitationem suscipit.\nFugiat iusto explicabo numquam corporis aut dolor.\nVoluptatem aut non ad illum molestiae et assumenda minima.\nDoloribus sit est nulla quaerat voluptate voluptas assumenda laboriosam.",
      "openHours": 49414,
      "address": "3365 Barros Avenida",
      "phone": "(68) 49874-3674",
      "M4T": true,
      "photoUrl": "http://lorempixel.com/640/480/technics",
      "created": "2015-11-05T09:19:28.100Z",
      "updated": "2015-10-26T02:08:22.602Z",
      "lat": -18.5378,
      "lng": -107.3058
    },
    {
      "id": 12,
      "title": "National Communications Agent",
      "center": "Polo Moraes do Norte",
      "state": "ES",
      "city": "Batista do Norte",
      "neighborhood": "Hélio",
      "description": "Dolore perferendis nesciunt sit id atque laborum.\nFugiat aut quo enim rerum sed possimus.\nQuae sint quod est qui.\nEsse consequatur aut sunt nihil dolorum voluptatibus.\nIpsum nam est.",
      "openHours": 26350,
      "address": "52547 Costa Rua",
      "phone": "(10) 7993-3390",
      "M4T": false,
      "photoUrl": "http://lorempixel.com/640/480/cats",
      "created": "2016-01-23T07:51:10.720Z",
      "updated": "2015-11-17T19:37:38.289Z",
      "lat": -62.7729,
      "lng": -83.1083
    },
    {
      "id": 13,
      "title": "International Communications Orchestrator",
      "center": "Polo Grande Félix",
      "state": "PR",
      "city": "Pereira de Nossa Senhora",
      "neighborhood": "João",
      "description": "Et amet neque voluptas consequatur voluptatum suscipit repellendus quo nobis.\nEt quia nihil consequatur.\nVoluptatem aut aliquam laboriosam est sit sequi error accusantium.\nId voluptate ut eum et.\nIure placeat velit consequatur quia voluptatem aut qui.\nPorro consequuntur quibusdam sit est natus quo consectetur quod aperiam.",
      "openHours": 45073,
      "address": "781 Martins Rodovia",
      "phone": "(13) 46461-1587",
      "M4T": false,
      "photoUrl": "http://lorempixel.com/640/480/sports",
      "created": "2015-10-17T00:06:04.886Z",
      "updated": "2015-07-12T05:43:46.629Z",
      "lat": -85.4934,
      "lng": -58.5758
    },
    {
      "id": 14,
      "title": "National Integration Associate",
      "center": "Polo Grande Félix",
      "state": "PR",
      "city": "Pereira de Nossa Senhora",
      "neighborhood": "Talita",
      "description": "Qui sequi tempora autem nesciunt repellat sit rerum ab.\nVoluptatem ut expedita quasi voluptas non esse.\nAsperiores laudantium tempora sed impedit.",
      "openHours": 20106,
      "address": "392 Souza Alameda",
      "phone": "(85) 05926-7659",
      "M4T": false,
      "photoUrl": "http://lorempixel.com/640/480/technics",
      "created": "2015-05-05T10:05:00.331Z",
      "updated": "2015-10-15T15:05:04.272Z",
      "lat": -81.8516,
      "lng": 34.5216
    },
    {
      "id": 15,
      "title": "District Interactions Producer",
      "center": "Polo Hélio do Sul",
      "state": "ES",
      "city": "Município de Alessandra do Sul",
      "neighborhood": "Hugo",
      "description": "Dolor officia est aut explicabo corrupti eaque saepe quia.\nNon nisi aut repudiandae autem.\nOdit hic laborum libero ut voluptatem et repudiandae vel dolor.",
      "openHours": 36905,
      "address": "590 Marcelo Avenida",
      "phone": "(79) 6715-7677",
      "M4T": true,
      "photoUrl": "http://lorempixel.com/640/480/fashion",
      "created": "2015-03-17T06:58:03.768Z",
      "updated": "2015-09-01T16:37:05.740Z",
      "lat": -68.9414,
      "lng": -43.3347
    },
    {
      "id": 16,
      "title": "Product Group Engineer",
      "center": "Polo Ladislau do Norte",
      "state": "ES",
      "city": "Martins de Nossa Senhora",
      "neighborhood": "Guilherme",
      "description": "Eius aut alias.\nFugiat omnis incidunt nostrum quis.\nInventore modi voluptatem.\nDignissimos earum voluptatem fugiat deleniti qui facere optio.\nUt nobis odio omnis aut aut.\nQui consectetur perspiciatis non.",
      "openHours": 37254,
      "address": "74390 Norberto Avenida",
      "phone": "(34) 9352-8913",
      "M4T": false,
      "photoUrl": "http://lorempixel.com/640/480/sports",
      "created": "2015-08-09T14:37:51.578Z",
      "updated": "2016-03-07T21:47:58.987Z",
      "lat": 31.2231,
      "lng": -178.8797
    },
    {
      "id": 17,
      "title": "Future Factors Producer",
      "center": "Polo Município de Dalila do Sul",
      "state": "MT",
      "city": "Frederico de Nossa Senhora",
      "neighborhood": "Lorena",
      "description": "Sunt sed animi nam est tenetur et voluptatem.\nModi ut aut ex ipsum quaerat.\nQuaerat repudiandae sequi sit facere.\nUt possimus quo voluptates sit.\nArchitecto consequatur molestiae sapiente aut omnis.\nVoluptas in eum nam reiciendis accusantium.",
      "openHours": 21008,
      "address": "479 Souza Viela",
      "phone": "+55 (06) 1998-4000",
      "M4T": false,
      "photoUrl": "http://lorempixel.com/640/480/people",
      "created": "2015-03-30T01:40:50.062Z",
      "updated": "2015-05-25T01:09:01.731Z",
      "lat": 40.3494,
      "lng": 110.361
    },
    {
      "id": 18,
      "title": "National Metrics Planner",
      "center": "Polo Grande Isabel do Sul",
      "state": "RS",
      "city": "Braga de Nossa Senhora",
      "neighborhood": "Meire",
      "description": "Ipsam recusandae quia ea nemo ad.\nAt nihil eos quibusdam natus magni consequatur voluptate ipsam.\nVel laborum et inventore laudantium consequatur est veritatis repellendus.\nVitae aliquam ut sint.\nVoluptas magni adipisci illo labore repudiandae.",
      "openHours": 95983,
      "address": "68191 Moraes Alameda",
      "phone": "(25) 3208-8660",
      "M4T": false,
      "photoUrl": "http://lorempixel.com/640/480/fashion",
      "created": "2016-02-25T20:25:52.534Z",
      "updated": "2015-11-01T17:16:20.794Z",
      "lat": 56.5482,
      "lng": 169.6226
    },
    {
      "id": 19,
      "title": "National Division Executive",
      "center": "Polo Sirineu do Norte",
      "state": "GO",
      "city": "Vila Pablo do Norte",
      "neighborhood": "Márcia",
      "description": "Qui adipisci dignissimos laboriosam temporibus voluptatem in.\nAtque consequatur illo totam consequuntur id odio.\nNon eum reiciendis exercitationem reprehenderit.\nConsequatur velit dolorem error ad qui ratione eligendi et.\nHic iste qui unde delectus sint est qui provident nihil.\nLabore tempora culpa dolore laborum quis doloribus vitae praesentium aut.",
      "openHours": 21225,
      "address": "4465 Braga Ponte",
      "phone": "+55 (46) 5512-3446",
      "M4T": true,
      "photoUrl": "http://lorempixel.com/640/480/food",
      "created": "2015-04-08T15:20:56.805Z",
      "updated": "2015-05-05T09:27:00.261Z",
      "lat": -69.4763,
      "lng": -39.4532
    },
    {
      "id": 20,
      "title": "Senior Group Orchestrator",
      "center": "Polo Sara do Norte",
      "state": "DF",
      "city": "Santos do Descoberto",
      "neighborhood": "Elísio",
      "description": "Quibusdam dolorem qui culpa nulla non unde maxime temporibus labore.\nVoluptatem est accusantium rerum et nam.\nMinus ipsum praesentium consequatur enim non quam ut.\nVitae nihil possimus et non ipsam.\nSimilique voluptatem quam vel voluptatibus asperiores at labore facere.\nAut ut exercitationem et doloremque in non dolorem veritatis.",
      "openHours": 46274,
      "address": "9682 Yuri Viela",
      "phone": "(54) 6285-5596",
      "M4T": true,
      "photoUrl": "http://lorempixel.com/640/480/business",
      "created": "2016-02-13T07:35:00.112Z",
      "updated": "2015-07-04T02:39:27.204Z",
      "lat": 39.6773,
      "lng": -166.6855
    },
    {
      "id": 21,
      "title": "International Response Architect",
      "center": "Polo Grande Félix",
      "state": "PR",
      "city": "Pereira de Nossa Senhora",
      "neighborhood": "Warley",
      "description": "Consectetur consequuntur tempore in recusandae et quibusdam dolor.\nDolores voluptas eveniet ut et error autem.\nReiciendis minima ut qui nulla aut blanditiis deleniti ducimus voluptatem.",
      "openHours": 24968,
      "address": "2558 Fabrício Rodovia",
      "phone": "+55 (35) 2067-6750",
      "M4T": false,
      "photoUrl": "http://lorempixel.com/640/480/people",
      "created": "2015-05-22T19:21:04.194Z",
      "updated": "2015-09-19T12:16:24.034Z",
      "lat": 62.9484,
      "lng": 68.175
    },
    {
      "id": 22,
      "title": "Lead Web Agent",
      "center": "Polo Hélio do Sul",
      "state": "ES",
      "city": "Município de Alessandra do Sul",
      "neighborhood": "Cecília",
      "description": "Quo ut et.\nQuas illo temporibus.\nTempora id aspernatur ratione velit omnis repudiandae unde eum at.\nConsequuntur atque consequatur cumque velit libero quia perspiciatis rerum est.\nAt iste explicabo.\nVelit architecto ut explicabo illum temporibus.",
      "openHours": 12208,
      "address": "816 Talita Ponte",
      "phone": "(27) 21267-1339",
      "M4T": true,
      "photoUrl": "http://lorempixel.com/640/480/sports",
      "created": "2015-05-23T19:06:13.058Z",
      "updated": "2015-12-09T00:23:20.571Z",
      "lat": 19.5429,
      "lng": -59.506
    },
    {
      "id": 23,
      "title": "Senior Solutions Associate",
      "center": "Polo Elísio do Sul",
      "state": "RJ",
      "city": "Núbia do Descoberto",
      "neighborhood": "Elísio",
      "description": "Soluta cum minus voluptatem non accusantium.\nSit ipsum eum est officiis eaque iusto dolorum.\nEt voluptatem quis dignissimos laudantium quia.\nReiciendis animi sit labore quae officiis explicabo porro sint harum.\nNon quo explicabo eaque aut quod in qui.\nTempora quidem ex error officia ea.",
      "openHours": 14596,
      "address": "498 Morgana Alameda",
      "phone": "+55 (57) 6882-4053",
      "M4T": true,
      "photoUrl": "http://lorempixel.com/640/480/city",
      "created": "2015-05-03T08:29:45.987Z",
      "updated": "2015-09-04T03:54:20.069Z",
      "lat": 27.3852,
      "lng": -5.5525
    },
    {
      "id": 24,
      "title": "Customer Markets Director",
      "center": "Polo Sara do Norte",
      "state": "DF",
      "city": "Santos do Descoberto",
      "neighborhood": "Karla",
      "description": "Debitis eaque autem.\nAut sit a necessitatibus eveniet distinctio quod natus ut.\nTempore doloremque omnis odit harum non et iusto sapiente consequuntur.\nMagni dolor tempora veniam mollitia laboriosam alias omnis doloribus nam.\nId aut nam rerum rerum a quos rerum.",
      "openHours": 39738,
      "address": "906 Paulo Viela",
      "phone": "+55 (69) 3298-9503",
      "M4T": true,
      "photoUrl": "http://lorempixel.com/640/480/business",
      "created": "2015-12-26T12:58:22.538Z",
      "updated": "2015-05-10T22:45:38.656Z",
      "lat": -65.8096,
      "lng": -100.6223
    },
    {
      "id": 25,
      "title": "Direct Intranet Architect",
      "center": "Polo Grande Carlos do Norte",
      "state": "PA",
      "city": "Carla do Sul",
      "neighborhood": "Lucas",
      "description": "Eum nam fugit nobis omnis eaque doloribus esse necessitatibus.\nExplicabo omnis magnam.\nEt quam sint eos in quis atque repellendus rerum.\nEos eos cumque sint et et assumenda aut fugit provident.",
      "openHours": 52411,
      "address": "9315 Roberta Viela",
      "phone": "(71) 93580-7849",
      "M4T": false,
      "photoUrl": "http://lorempixel.com/640/480/business",
      "created": "2016-01-03T12:27:36.413Z",
      "updated": "2016-02-20T04:49:41.859Z",
      "lat": -42.121,
      "lng": 64.2055
    },
    {
      "id": 26,
      "title": "Chief Intranet Associate",
      "center": "Polo Elísio do Sul",
      "state": "RJ",
      "city": "Núbia do Descoberto",
      "neighborhood": "Joana",
      "description": "Reiciendis perspiciatis fuga illum sed qui autem beatae.\nVoluptatum ut reprehenderit.\nAt accusamus omnis cumque quisquam laudantium in magnam.\nPorro non eius qui sed labore.",
      "openHours": 28116,
      "address": "5162 Nogueira Travessa",
      "phone": "(74) 8191-2713",
      "M4T": false,
      "photoUrl": "http://lorempixel.com/640/480/people",
      "created": "2015-10-12T07:44:00.371Z",
      "updated": "2015-09-08T20:01:36.472Z",
      "lat": 73.4668,
      "lng": 5.96
    },
    {
      "id": 27,
      "title": "Future Functionality Technician",
      "center": "Polo Grande Félix",
      "state": "PR",
      "city": "Pereira de Nossa Senhora",
      "neighborhood": "Joana",
      "description": "Vitae rerum a quia recusandae quidem tempore atque.\nFacere et quod unde quisquam laudantium placeat.\nImpedit excepturi temporibus cumque non.\nRecusandae adipisci quia totam velit quia omnis.",
      "openHours": 53325,
      "address": "4651 Margarida Travessa",
      "phone": "+55 (26) 2756-5822",
      "M4T": false,
      "photoUrl": "http://lorempixel.com/640/480/nightlife",
      "created": "2015-12-02T20:48:31.487Z",
      "updated": "2015-11-09T14:24:15.158Z",
      "lat": -51.4639,
      "lng": 135.835
    },
    {
      "id": 28,
      "title": "Dynamic Response Planner",
      "center": "Polo Martins de Nossa Senhora",
      "state": "AP",
      "city": "Velha Marli do Norte",
      "neighborhood": "Isabel",
      "description": "Quo vel quaerat dolorem ipsum quo.\nNihil quia sint ipsum et dolore qui et.\nPerspiciatis quo modi quod illo.\nError ut et dolor eos quod illo quos rerum nemo.\nUt sunt exercitationem voluptatem veritatis eius quam.",
      "openHours": 21485,
      "address": "454 Franco Travessa",
      "phone": "(05) 5219-3216",
      "M4T": true,
      "photoUrl": "http://lorempixel.com/640/480/animals",
      "created": "2015-11-25T17:26:06.567Z",
      "updated": "2015-07-03T15:38:13.244Z",
      "lat": 80.6358,
      "lng": -22.2995
    },
    {
      "id": 29,
      "title": "Forward Infrastructure Specialist",
      "center": "Polo Moraes do Norte",
      "state": "ES",
      "city": "Batista do Norte",
      "neighborhood": "Heitor",
      "description": "Qui omnis et sapiente neque ut.\nAliquid voluptas sunt praesentium quaerat fuga.\nMagni corrupti laudantium qui ab qui accusamus harum officiis.",
      "openHours": 10616,
      "address": "26592 Franco Alameda",
      "phone": "+55 (63) 8890-1005",
      "M4T": true,
      "photoUrl": "http://lorempixel.com/640/480/food",
      "created": "2015-12-12T04:43:02.727Z",
      "updated": "2015-10-25T04:01:49.646Z",
      "lat": 19.1832,
      "lng": 110.3982
    },
    {
      "id": 30,
      "title": "Principal Quality Coordinator",
      "center": "Polo Vila Meire",
      "state": "MA",
      "city": "Nova Marcos do Descoberto",
      "neighborhood": "Márcia",
      "description": "Fugiat omnis aut assumenda.\nCupiditate tempora veritatis nemo dolore aliquid est est.\nAssumenda facere voluptatibus nihil ut est molestias.\nVoluptates occaecati voluptatem.",
      "openHours": 2744,
      "address": "446 Fabrícia Rua",
      "phone": "+55 (21) 7474-6837",
      "M4T": false,
      "photoUrl": "http://lorempixel.com/640/480/nature",
      "created": "2015-10-26T12:00:59.163Z",
      "updated": "2016-02-21T12:06:51.692Z",
      "lat": 75.9647,
      "lng": -170.8148
    },
    {
      "id": 31,
      "title": "Senior Mobility Analyst",
      "center": "Polo Sara do Norte",
      "state": "DF",
      "city": "Santos do Descoberto",
      "neighborhood": "Rafael",
      "description": "Laudantium beatae excepturi accusamus assumenda vel dolores animi et iure.\nIste asperiores eum eos laboriosam molestiae optio.\nLaudantium eligendi rerum ex optio id vel quidem aut ratione.\nQuo sit nostrum dolor voluptas deleniti quae assumenda et.\nTenetur quam illo quis nam voluptatibus qui.\nDolores mollitia corrupti provident.",
      "openHours": 56441,
      "address": "6638 Macedo Rodovia",
      "phone": "(89) 2312-7208",
      "M4T": false,
      "photoUrl": "http://lorempixel.com/640/480/food",
      "created": "2016-01-04T05:13:42.836Z",
      "updated": "2015-04-25T02:56:53.636Z",
      "lat": 17.4019,
      "lng": -34.5315
    },
    {
      "id": 32,
      "title": "Human Solutions Administrator",
      "center": "Polo Velha Dalila do Sul",
      "state": "AP",
      "city": "Grande Ofélia",
      "neighborhood": "Sílvia",
      "description": "Quia quos natus.\nMagnam quod aperiam officiis.\nEt dolore qui quae suscipit.",
      "openHours": 28379,
      "address": "756 Macedo Ponte",
      "phone": "+55 (49) 6060-8195",
      "M4T": true,
      "photoUrl": "http://lorempixel.com/640/480/abstract",
      "created": "2015-08-22T00:57:47.612Z",
      "updated": "2015-06-07T19:35:17.927Z",
      "lat": 0.7142,
      "lng": 84.712
    },
    {
      "id": 33,
      "title": "Internal Operations Designer",
      "center": "Polo Martins de Nossa Senhora",
      "state": "AP",
      "city": "Velha Marli do Norte",
      "neighborhood": "Esther",
      "description": "Nostrum et dolores id voluptatem ullam est aut et.\nDolorem molestiae voluptatem quasi dicta illum eos.\nLabore delectus consequuntur quia sed ea quo atque et praesentium.",
      "openHours": 33417,
      "address": "61827 Reis Ponte",
      "phone": "+55 (16) 2191-5272",
      "M4T": true,
      "photoUrl": "http://lorempixel.com/640/480/animals",
      "created": "2015-07-03T06:07:33.111Z",
      "updated": "2016-02-10T12:56:48.223Z",
      "lat": -15.2502,
      "lng": 144.6875
    },
    {
      "id": 34,
      "title": "Future Markets Engineer",
      "center": "Polo Grande Sílvia",
      "state": "DF",
      "city": "Velha Larissa do Sul",
      "neighborhood": "Ofélia",
      "description": "Ratione in tempore repellat animi consequuntur suscipit porro.\nEt molestias libero aperiam animi nobis id tempore hic reiciendis.\nConsequatur ut aperiam ea fugit quas cumque.",
      "openHours": 43357,
      "address": "3291 Moraes Rua",
      "phone": "(63) 2478-6341",
      "M4T": true,
      "photoUrl": "http://lorempixel.com/640/480/transport",
      "created": "2015-08-23T15:28:18.285Z",
      "updated": "2015-06-16T05:03:11.755Z",
      "lat": -84.4157,
      "lng": 78.5309
    },
    {
      "id": 35,
      "title": "International Group Associate",
      "center": "Polo Vila Danilo",
      "state": "CE",
      "city": "Pereira de Nossa Senhora",
      "neighborhood": "Nataniel",
      "description": "Maxime corrupti dolorem fugit adipisci.\nDeserunt nihil et neque.\nNon ut omnis asperiores.\nMolestiae occaecati ut rerum sequi aliquid.",
      "openHours": 50340,
      "address": "16540 Heitor Ponte",
      "phone": "+55 (27) 4066-6093",
      "M4T": true,
      "photoUrl": "http://lorempixel.com/640/480/food",
      "created": "2015-05-01T13:08:48.735Z",
      "updated": "2015-09-27T06:54:14.639Z",
      "lat": 52.0934,
      "lng": -61.5144
    },
    {
      "id": 36,
      "title": "Customer Interactions Liason",
      "center": "Polo Sara do Norte",
      "state": "DF",
      "city": "Santos do Descoberto",
      "neighborhood": "Alessandro",
      "description": "Nihil deserunt alias sint.\nVoluptatibus pariatur praesentium facilis et tempora corporis vel autem dolore.\nAt cupiditate doloremque rerum ab fuga dolores aliquam labore maxime.",
      "openHours": 84883,
      "address": "741 Vitória Viela",
      "phone": "(52) 85865-2190",
      "M4T": true,
      "photoUrl": "http://lorempixel.com/640/480/animals",
      "created": "2015-07-08T08:16:07.426Z",
      "updated": "2015-04-09T12:15:24.392Z",
      "lat": 66.7042,
      "lng": 166.8733
    },
    {
      "id": 37,
      "title": "Regional Integration Manager",
      "center": "Polo Marcela do Sul",
      "state": "RS",
      "city": "Silva de Nossa Senhora",
      "neighborhood": "Silas",
      "description": "Voluptates sed laudantium cupiditate inventore dolorem est quis voluptas illum.\nEt qui odio distinctio voluptatum animi qui illum vero dolorem.\nArchitecto placeat quisquam sapiente est in aut molestias nam omnis.\nQuidem veniam sit facilis recusandae distinctio accusantium est amet.",
      "openHours": 2733,
      "address": "7110 Nataniel Alameda",
      "phone": "+55 (64) 7320-9922",
      "M4T": false,
      "photoUrl": "http://lorempixel.com/640/480/city",
      "created": "2015-08-10T08:34:05.900Z",
      "updated": "2015-08-08T10:56:49.947Z",
      "lat": 86.3447,
      "lng": 109.9101
    },
    {
      "id": 38,
      "title": "Dynamic Mobility Assistant",
      "center": "Polo Grande Sílvia",
      "state": "DF",
      "city": "Velha Larissa do Sul",
      "neighborhood": "Fabrício",
      "description": "Accusamus itaque quos eos dolores porro aliquid architecto est at.\nVoluptatem enim est qui asperiores beatae.\nIure blanditiis quaerat nobis aliquid ut corrupti perferendis harum.",
      "openHours": 83618,
      "address": "01137 Bruna Ponte",
      "phone": "(28) 57490-7975",
      "M4T": true,
      "photoUrl": "http://lorempixel.com/640/480/nature",
      "created": "2015-09-24T10:42:28.158Z",
      "updated": "2015-11-30T15:22:58.744Z",
      "lat": -1.439,
      "lng": -100.3587
    },
    {
      "id": 39,
      "title": "Dynamic Implementation Producer",
      "center": "Polo Sirineu do Norte",
      "state": "GO",
      "city": "Vila Pablo do Norte",
      "neighborhood": "Gustavo",
      "description": "Unde voluptatem labore et dolorum suscipit ducimus molestias.\nBlanditiis ut cum consequatur.\nSunt aliquam corporis error dolores nihil sapiente id nihil voluptates.",
      "openHours": 31196,
      "address": "6431 Breno Rua",
      "phone": "+55 (81) 3139-0435",
      "M4T": true,
      "photoUrl": "http://lorempixel.com/640/480/nightlife",
      "created": "2015-05-17T02:07:58.940Z",
      "updated": "2015-07-09T17:00:05.563Z",
      "lat": -16.249,
      "lng": -139.08
    },
    {
      "id": 40,
      "title": "Dynamic Directives Specialist",
      "center": "Polo Marcela do Sul",
      "state": "RS",
      "city": "Silva de Nossa Senhora",
      "neighborhood": "Carlos",
      "description": "Enim distinctio amet eum.\nLaudantium voluptatum hic quisquam placeat consequatur a.\nDolor ab est.\nPraesentium voluptas enim facilis a aut provident nisi.\nQuaerat alias sed.\nAt et ea quasi atque est quis.",
      "openHours": 16966,
      "address": "2414 Moraes Avenida",
      "phone": "(77) 17617-8377",
      "M4T": false,
      "photoUrl": "http://lorempixel.com/640/480/cats",
      "created": "2016-02-11T15:36:16.027Z",
      "updated": "2015-06-03T08:26:01.455Z",
      "lat": -39.9477,
      "lng": -31.3563
    },
    {
      "id": 41,
      "title": "Future Paradigm Supervisor",
      "center": "Polo Grande Carlos do Norte",
      "state": "PA",
      "city": "Carla do Sul",
      "neighborhood": "Natália",
      "description": "Necessitatibus sit incidunt ea amet.\nQuibusdam impedit ut beatae dolor aperiam occaecati.\nQuidem voluptate quasi quis adipisci minima a.\nQuia eligendi quidem perferendis autem.",
      "openHours": 61113,
      "address": "2583 Oliveira Travessa",
      "phone": "+55 (85) 3350-2317",
      "M4T": true,
      "photoUrl": "http://lorempixel.com/640/480/sports",
      "created": "2015-12-12T23:28:30.350Z",
      "updated": "2015-11-04T08:28:33.402Z",
      "lat": -46.4068,
      "lng": 25.5154
    },
    {
      "id": 42,
      "title": "Legacy Directives Liason",
      "center": "Polo Joana do Sul",
      "state": "SC",
      "city": "Oliveira do Norte",
      "neighborhood": "Víctor",
      "description": "Voluptates aspernatur ullam accusantium sed ut magni esse occaecati facilis.\nConsequuntur expedita veritatis omnis ipsum nulla illo reprehenderit sed.\nUt incidunt ut tempora est quo quaerat occaecati aut.\nQuod dolore nulla aperiam rerum voluptas.\nMagni iure dolorum blanditiis ex voluptas enim quia quis.",
      "openHours": 34721,
      "address": "513 Albuquerque Viela",
      "phone": "+55 (42) 7702-1489",
      "M4T": true,
      "photoUrl": "http://lorempixel.com/640/480/fashion",
      "created": "2015-03-25T02:12:57.457Z",
      "updated": "2015-08-23T20:46:52.270Z",
      "lat": -10.507,
      "lng": 18.7775
    },
    {
      "id": 43,
      "title": "Forward Mobility Analyst",
      "center": "Polo Hélio do Sul",
      "state": "ES",
      "city": "Município de Alessandra do Sul",
      "neighborhood": "Natália",
      "description": "Consequatur accusantium sed libero laudantium neque voluptatem.\nAut quis officia ratione aperiam iste.\nVoluptas id dolore vero officiis.\nTenetur iure voluptatibus sapiente sed.",
      "openHours": 25576,
      "address": "29657 Fabiano Alameda",
      "phone": "+55 (79) 1340-0741",
      "M4T": true,
      "photoUrl": "http://lorempixel.com/640/480/nature",
      "created": "2015-08-11T08:10:25.974Z",
      "updated": "2015-07-17T11:24:07.688Z",
      "lat": 5.8509,
      "lng": 172.0136
    },
    {
      "id": 44,
      "title": "Forward Research Liason",
      "center": "Polo Hélio do Sul",
      "state": "ES",
      "city": "Município de Alessandra do Sul",
      "neighborhood": "Marli",
      "description": "Laborum quas voluptatem dolor ad consequatur at eos.\nNihil aperiam atque reprehenderit laborum accusamus officiis ut placeat.\nMolestiae recusandae non culpa aut et cumque.\nIpsum culpa sint pariatur quasi nam.",
      "openHours": 50321,
      "address": "7414 Frederico Rua",
      "phone": "(27) 88155-1361",
      "M4T": false,
      "photoUrl": "http://lorempixel.com/640/480/business",
      "created": "2015-06-07T13:29:46.197Z",
      "updated": "2015-10-19T12:49:16.019Z",
      "lat": -65.8152,
      "lng": 81.9495
    },
    {
      "id": 45,
      "title": "Global Quality Coordinator",
      "center": "Polo Velha Dalila do Sul",
      "state": "AP",
      "city": "Grande Ofélia",
      "neighborhood": "Yago",
      "description": "Sint quos in quibusdam deleniti aliquam.\nNatus qui et.\nRerum consequatur et beatae autem voluptatem.\nMaxime et quas officia et.\nHic quae voluptatibus dolor aspernatur a voluptatem eligendi.",
      "openHours": 75825,
      "address": "24583 Isabel Travessa",
      "phone": "+55 (28) 3499-7583",
      "M4T": false,
      "photoUrl": "http://lorempixel.com/640/480/animals",
      "created": "2015-06-08T07:31:09.128Z",
      "updated": "2015-08-06T05:10:49.881Z",
      "lat": 29.4454,
      "lng": 1.053
    },
    {
      "id": 46,
      "title": "Human Communications Facilitator",
      "center": "Polo Município de Carlos do Sul",
      "state": "RJ",
      "city": "Frederico do Sul",
      "neighborhood": "Heitor",
      "description": "Et repellendus officiis sed est.\nQuia natus deserunt omnis sed odio.\nVoluptas error harum debitis qui.",
      "openHours": 23181,
      "address": "532 Marcela Viela",
      "phone": "(93) 24110-5181",
      "M4T": false,
      "photoUrl": "http://lorempixel.com/640/480/fashion",
      "created": "2016-01-18T03:35:31.535Z",
      "updated": "2015-08-22T09:49:09.189Z",
      "lat": 24.616,
      "lng": -148.0548
    },
    {
      "id": 47,
      "title": "Global Division Specialist",
      "center": "Polo Município de Dalila do Sul",
      "state": "MT",
      "city": "Frederico de Nossa Senhora",
      "neighborhood": "Ígor",
      "description": "Voluptate doloribus voluptatem accusantium numquam iste.\nDicta et ut molestiae cumque rem.\nVitae repellendus error.\nVoluptas id quaerat in reiciendis.\nEa odio voluptatem aut autem.\nNumquam et quo pariatur quas delectus veritatis.",
      "openHours": 1372,
      "address": "500 Braga Rodovia",
      "phone": "(82) 6081-5229",
      "M4T": false,
      "photoUrl": "http://lorempixel.com/640/480/nightlife",
      "created": "2015-10-14T18:58:53.643Z",
      "updated": "2015-04-22T16:37:02.071Z",
      "lat": -36.4238,
      "lng": -93.5374
    },
    {
      "id": 48,
      "title": "Legacy Program Administrator",
      "center": "Polo Velha Dalila do Sul",
      "state": "AP",
      "city": "Grande Ofélia",
      "neighborhood": "Larissa",
      "description": "Culpa nam assumenda.\nReiciendis quasi molestiae nulla nihil alias ex voluptatibus.\nSuscipit similique eum dolor sit aut.\nQuaerat id aut sunt similique.\nQui beatae ut possimus et aut sint nisi a ratione.\nDoloremque eveniet reprehenderit harum rerum.",
      "openHours": 2767,
      "address": "82050 Nogueira Travessa",
      "phone": "(37) 5314-0429",
      "M4T": true,
      "photoUrl": "http://lorempixel.com/640/480/nightlife",
      "created": "2015-12-04T05:38:54.944Z",
      "updated": "2015-05-27T03:54:53.129Z",
      "lat": -31.4869,
      "lng": -129.2514
    },
    {
      "id": 49,
      "title": "Corporate Accounts Manager",
      "center": "Polo Grande Danilo do Descoberto",
      "state": "RO",
      "city": "Joana do Descoberto",
      "neighborhood": "Hélio",
      "description": "Et vitae architecto aperiam qui.\nVitae vel deleniti numquam commodi molestiae sunt.\nNihil omnis ratione.\nNecessitatibus repellat sed sunt.",
      "openHours": 98566,
      "address": "00130 Fabrícia Avenida",
      "phone": "+55 (62) 0384-1014",
      "M4T": false,
      "photoUrl": "http://lorempixel.com/640/480/nature",
      "created": "2015-05-15T09:30:15.531Z",
      "updated": "2015-07-28T14:49:42.762Z",
      "lat": 50.1983,
      "lng": 69.2323
    },
    {
      "id": 50,
      "title": "Forward Configuration Technician",
      "center": "Polo Meire do Norte",
      "state": "RJ",
      "city": "Raul do Descoberto",
      "neighborhood": "Fabrícia",
      "description": "Libero hic aliquam animi quo ab provident beatae.\nDolor dolorum quidem optio qui vitae voluptatibus.\nOmnis et voluptas laudantium.\nAutem accusantium quia.",
      "openHours": 39335,
      "address": "0188 Barros Viela",
      "phone": "(44) 29509-9646",
      "M4T": true,
      "photoUrl": "http://lorempixel.com/640/480/cats",
      "created": "2015-08-18T17:48:22.057Z",
      "updated": "2015-11-22T08:12:12.100Z",
      "lat": 50.8324,
      "lng": 122.5164
    },
    {
      "id": 51,
      "title": "Global Mobility Agent",
      "center": "Polo Sirineu do Norte",
      "state": "GO",
      "city": "Vila Pablo do Norte",
      "neighborhood": "Esther",
      "description": "Sequi quis magni eos laborum rem quasi repellendus officiis.\nEt nesciunt voluptatum ratione.\nIllo voluptatem dolore modi magni.\nMollitia ut quasi et corporis.\nIncidunt iste aliquid voluptas sed expedita dolores provident quibusdam.\nPerspiciatis occaecati ipsa et eos.",
      "openHours": 493,
      "address": "2980 Carlos Marginal",
      "phone": "(28) 3620-7879",
      "M4T": false,
      "photoUrl": "http://lorempixel.com/640/480/people",
      "created": "2015-12-30T12:56:38.212Z",
      "updated": "2015-08-01T23:00:06.846Z",
      "lat": -69.119,
      "lng": -9.9229
    },
    {
      "id": 52,
      "title": "Future Accountability Strategist",
      "center": "Polo Município de Pablo",
      "state": "BA",
      "city": "Velha Heitor",
      "neighborhood": "Sílvia",
      "description": "Qui eaque ducimus nihil vel.\nTenetur est veritatis repudiandae voluptatem provident consequatur corrupti.\nVoluptatem nemo aut rem voluptas dignissimos.\nRatione sequi quo sed omnis expedita earum voluptates.\nHic molestias ipsa.\nPerspiciatis sapiente dolorem aut nesciunt omnis quo qui quae.",
      "openHours": 75148,
      "address": "5273 Elísio Viela",
      "phone": "(19) 23361-8641",
      "M4T": false,
      "photoUrl": "http://lorempixel.com/640/480/city",
      "created": "2015-10-07T21:31:14.365Z",
      "updated": "2015-11-01T08:26:47.042Z",
      "lat": -16.4376,
      "lng": -22.6754
    },
    {
      "id": 53,
      "title": "Dynamic Applications Supervisor",
      "center": "Polo Elísio do Sul",
      "state": "RJ",
      "city": "Núbia do Descoberto",
      "neighborhood": "Célia",
      "description": "Qui repudiandae rerum beatae blanditiis odit quaerat.\nOmnis omnis et odit commodi a quia itaque sed fugit.\nAliquid illum atque possimus magnam.\nQuia rerum eum qui qui illo ut corrupti fuga nihil.\nQuas deleniti voluptates.\nCum autem nostrum corrupti a.",
      "openHours": 42403,
      "address": "2707 Martins Rua",
      "phone": "+55 (76) 1260-5495",
      "M4T": false,
      "photoUrl": "http://lorempixel.com/640/480/cats",
      "created": "2015-05-26T14:06:26.801Z",
      "updated": "2015-03-30T08:04:26.170Z",
      "lat": 25.4688,
      "lng": 28.9448
    },
    {
      "id": 54,
      "title": "Future Integration Designer",
      "center": "Polo Vila Danilo",
      "state": "CE",
      "city": "Pereira de Nossa Senhora",
      "neighborhood": "Mércia",
      "description": "Non eius voluptatibus dicta quod.\nEt nulla in.\nIusto libero aut et minus.",
      "openHours": 29838,
      "address": "44776 Saraiva Marginal",
      "phone": "(63) 3278-6968",
      "M4T": false,
      "photoUrl": "http://lorempixel.com/640/480/cats",
      "created": "2016-01-27T12:08:20.915Z",
      "updated": "2015-08-31T17:22:35.144Z",
      "lat": 50.6412,
      "lng": 92.3955
    },
    {
      "id": 55,
      "title": "Corporate Applications Architect",
      "center": "Polo Moraes do Norte",
      "state": "ES",
      "city": "Batista do Norte",
      "neighborhood": "Fabrícia",
      "description": "Eos quia occaecati rerum in consequatur nostrum corporis.\nQuia sed ab molestias porro quas quae natus.\nTempora perferendis sed et quis nostrum.",
      "openHours": 37414,
      "address": "888 Fabrício Avenida",
      "phone": "(01) 12759-9383",
      "M4T": true,
      "photoUrl": "http://lorempixel.com/640/480/transport",
      "created": "2016-02-04T16:06:50.030Z",
      "updated": "2015-10-11T02:16:13.286Z",
      "lat": 14.6351,
      "lng": 179.6828
    },
    {
      "id": 56,
      "title": "National Brand Liason",
      "center": "Polo Nova Norberto do Descoberto",
      "state": "RN",
      "city": "Grande Célia do Sul",
      "neighborhood": "Isabela",
      "description": "Delectus aut consequatur quaerat minima quis.\nVelit repellat sapiente aut ab et delectus.\nEos natus vero quia eveniet.\nVeritatis consectetur et et consequatur voluptatum natus suscipit vero quia.",
      "openHours": 66385,
      "address": "1276 Felícia Marginal",
      "phone": "(03) 56793-0192",
      "M4T": false,
      "photoUrl": "http://lorempixel.com/640/480/technics",
      "created": "2016-02-16T01:41:18.263Z",
      "updated": "2016-01-14T05:58:10.680Z",
      "lat": 23.1977,
      "lng": -34.5675
    },
    {
      "id": 57,
      "title": "Dynamic Branding Executive",
      "center": "Polo Vila Meire",
      "state": "MA",
      "city": "Nova Marcos do Descoberto",
      "neighborhood": "Márcia",
      "description": "Cupiditate aut ut molestias voluptatum.\nDebitis eius quia quasi quia quidem qui esse.\nReiciendis inventore et explicabo.\nAsperiores et rerum consequatur quia.",
      "openHours": 21127,
      "address": "505 Frederico Avenida",
      "phone": "+55 (53) 9526-9612",
      "M4T": false,
      "photoUrl": "http://lorempixel.com/640/480/cats",
      "created": "2016-02-24T04:59:48.560Z",
      "updated": "2016-01-10T07:56:30.433Z",
      "lat": -83.7748,
      "lng": 79.0505
    },
    {
      "id": 58,
      "title": "Investor Identity Liason",
      "center": "Polo Ladislau do Norte",
      "state": "ES",
      "city": "Martins de Nossa Senhora",
      "neighborhood": "Félix",
      "description": "Maxime reprehenderit iste laudantium aut ipsum rerum.\nVelit quibusdam et consequatur velit qui dolor et.\nQui in nostrum ut modi omnis inventore iste.\nLabore hic velit minus nisi est aut.\nUt earum odit voluptatem nulla non autem quis iure blanditiis.\nRepellendus delectus sed blanditiis molestiae qui fuga ipsum.",
      "openHours": 67373,
      "address": "17058 Carlos Travessa",
      "phone": "+55 (39) 0004-1613",
      "M4T": false,
      "photoUrl": "http://lorempixel.com/640/480/sports",
      "created": "2015-11-25T02:36:53.983Z",
      "updated": "2015-12-26T21:00:19.402Z",
      "lat": 6.8611,
      "lng": 150.4858
    },
    {
      "id": 59,
      "title": "District Creative Director",
      "center": "Polo Município de Carlos do Sul",
      "state": "SP",
      "city": "Nova Alessandro",
      "neighborhood": "Larissa",
      "description": "Alias minima ad dolores vel ducimus.\nVel quae sed earum corporis non dolores consequuntur perspiciatis enim.\nNihil saepe occaecati et.\nFacilis quo eligendi illum dolor at officia odit occaecati.\nPerferendis debitis possimus praesentium ipsa ea deleniti sed facilis soluta.\nQuidem quia tenetur molestiae aperiam ex eligendi.",
      "openHours": 93008,
      "address": "803 Barros Viela",
      "phone": "(38) 0482-1004",
      "M4T": true,
      "photoUrl": "http://lorempixel.com/640/480/fashion",
      "created": "2016-02-03T08:46:02.768Z",
      "updated": "2015-03-11T01:40:27.709Z",
      "lat": -59.1555,
      "lng": 125.9233
    },
    {
      "id": 60,
      "title": "Corporate Configuration Facilitator",
      "center": "Polo Hélio do Sul",
      "state": "ES",
      "city": "Município de Alessandra do Sul",
      "neighborhood": "Roberto",
      "description": "Voluptatum quidem nihil ad veniam voluptatem sed.\nAut totam vitae minima eos et.\nSed quia expedita aspernatur qui minus consequatur.\nAmet voluptatum sed perspiciatis quo.\nLaboriosam dolore eius totam.\nTempore ratione ut sit voluptatem et odit et omnis culpa.",
      "openHours": 59042,
      "address": "394 Pereira Rodovia",
      "phone": "(45) 8446-9001",
      "M4T": false,
      "photoUrl": "http://lorempixel.com/640/480/business",
      "created": "2015-09-06T00:59:22.944Z",
      "updated": "2015-05-17T07:48:30.802Z",
      "lat": -22.0094,
      "lng": 76.9284
    },
    {
      "id": 61,
      "title": "Dynamic Markets Designer",
      "center": "Polo Hélio do Sul",
      "state": "ES",
      "city": "Município de Alessandra do Sul",
      "neighborhood": "Marli",
      "description": "Dicta sed voluptate et doloremque.\nSit qui aliquid placeat laudantium.\nIste odio hic atque autem voluptates adipisci illo.\nQuidem ut sint rem voluptates.",
      "openHours": 93891,
      "address": "53426 Pablo Avenida",
      "phone": "+55 (65) 2974-7586",
      "M4T": true,
      "photoUrl": "http://lorempixel.com/640/480/transport",
      "created": "2015-12-19T12:22:56.736Z",
      "updated": "2015-08-13T23:26:36.651Z",
      "lat": 38.7805,
      "lng": -143.9947
    },
    {
      "id": 62,
      "title": "Global Functionality Coordinator",
      "center": "Polo Marcela do Sul",
      "state": "RS",
      "city": "Silva de Nossa Senhora",
      "neighborhood": "Lorraine",
      "description": "Aliquid id magni harum odio voluptates.\nQuisquam magnam commodi at inventore.\nConsequatur aut doloremque ipsa qui labore architecto rem.\nPorro et cumque quam.\nTemporibus voluptatem quia.\nLaudantium vero ullam ut nihil atque.",
      "openHours": 26191,
      "address": "217 Ígor Rua",
      "phone": "+55 (41) 3610-8426",
      "M4T": false,
      "photoUrl": "http://lorempixel.com/640/480/cats",
      "created": "2015-10-16T18:01:04.715Z",
      "updated": "2015-11-07T07:13:03.356Z",
      "lat": 20.9892,
      "lng": 90.1429
    },
    {
      "id": 63,
      "title": "Lead Research Agent",
      "center": "Polo Grande Felícia",
      "state": "RO",
      "city": "Grande Heitor do Sul",
      "neighborhood": "Aline",
      "description": "Optio est aliquid quos.\nQuis distinctio omnis et quos voluptatem.\nOdio assumenda quae minima odit aspernatur sit quos est.\nUt et provident sed pariatur.\nDolorum sit incidunt et eos corrupti eum.",
      "openHours": 83745,
      "address": "951 Macedo Travessa",
      "phone": "(71) 4129-0464",
      "M4T": false,
      "photoUrl": "http://lorempixel.com/640/480/abstract",
      "created": "2016-01-12T01:23:56.077Z",
      "updated": "2015-12-01T22:37:36.957Z",
      "lat": -56.0531,
      "lng": -94.4907
    },
    {
      "id": 64,
      "title": "Chief Optimization Strategist",
      "center": "Polo Ladislau do Norte",
      "state": "ES",
      "city": "Martins de Nossa Senhora",
      "neighborhood": "Cecília",
      "description": "Praesentium saepe soluta et.\nQuod et voluptate temporibus.\nMinima sit saepe.\nQuibusdam fugiat animi numquam vero quo doloribus.",
      "openHours": 21154,
      "address": "58106 Braga Rua",
      "phone": "(84) 2266-8405",
      "M4T": true,
      "photoUrl": "http://lorempixel.com/640/480/abstract",
      "created": "2016-02-24T07:00:15.550Z",
      "updated": "2015-05-03T05:28:27.567Z",
      "lat": -17.3825,
      "lng": 142.7104
    },
    {
      "id": 65,
      "title": "Corporate Data Assistant",
      "center": "Polo Velha Dalila do Sul",
      "state": "AP",
      "city": "Grande Ofélia",
      "neighborhood": "Paula",
      "description": "Sequi tenetur minus quod ut.\nIn error illo quae et ut sequi.\nImpedit itaque et accusamus.\nRerum doloremque enim vel odit nemo ea.",
      "openHours": 36248,
      "address": "516 Batista Travessa",
      "phone": "(94) 2915-2825",
      "M4T": false,
      "photoUrl": "http://lorempixel.com/640/480/city",
      "created": "2016-01-19T13:07:02.003Z",
      "updated": "2015-09-09T12:37:51.392Z",
      "lat": 29.8767,
      "lng": 38.9735
    },
    {
      "id": 66,
      "title": "Dynamic Security Producer",
      "center": "Polo Meire do Norte",
      "state": "RJ",
      "city": "Raul do Descoberto",
      "neighborhood": "Norberto",
      "description": "Porro repellendus error recusandae velit odit laborum.\nMagnam alias autem illum dolor eligendi dolorem.\nCumque et quis pariatur.\nEx blanditiis quisquam quaerat perferendis perspiciatis mollitia sed sed.\nNulla cupiditate quo sunt quis sequi veritatis.\nConsequatur dolorem alias eaque.",
      "openHours": 81190,
      "address": "27914 Santos Avenida",
      "phone": "+55 (41) 4649-9200",
      "M4T": true,
      "photoUrl": "http://lorempixel.com/640/480/sports",
      "created": "2015-12-17T15:37:36.872Z",
      "updated": "2015-10-24T18:24:54.268Z",
      "lat": -43.159,
      "lng": 109.2096
    },
    {
      "id": 67,
      "title": "Senior Configuration Director",
      "center": "Polo Nova Norberto do Descoberto",
      "state": "RN",
      "city": "Grande Célia do Sul",
      "neighborhood": "Deneval",
      "description": "Alias illum dolore possimus.\nAsperiores nihil eveniet placeat iusto et aut sed quod.\nBeatae possimus quia veniam molestiae suscipit hic quisquam reprehenderit expedita.\nEligendi non perspiciatis vitae ut et accusantium.\nAccusantium minima vero.\nRem fuga distinctio et.",
      "openHours": 25903,
      "address": "591 Yuri Ponte",
      "phone": "(60) 5770-0388",
      "M4T": false,
      "photoUrl": "http://lorempixel.com/640/480/cats",
      "created": "2015-03-19T16:18:05.784Z",
      "updated": "2015-04-28T01:37:15.215Z",
      "lat": -15.3875,
      "lng": -83.4127
    },
    {
      "id": 68,
      "title": "Central Paradigm Strategist",
      "center": "Polo Sara do Norte",
      "state": "DF",
      "city": "Santos do Descoberto",
      "neighborhood": "Lucas",
      "description": "Aut repudiandae ut debitis cupiditate aperiam eaque voluptate.\nQui enim minima ut excepturi ab dolores.\nEsse sed iure eum aliquid delectus ipsa sint voluptatum.\nRecusandae ut enim id quos vel iusto.\nRerum repudiandae distinctio.",
      "openHours": 11390,
      "address": "73356 Braga Ponte",
      "phone": "(74) 3792-6022",
      "M4T": false,
      "photoUrl": "http://lorempixel.com/640/480/cats",
      "created": "2016-01-06T11:54:34.053Z",
      "updated": "2015-09-16T16:23:09.686Z",
      "lat": -35.6229,
      "lng": 147.4268
    },
    {
      "id": 69,
      "title": "Direct Factors Officer",
      "center": "Polo Grande Sílvia",
      "state": "DF",
      "city": "Velha Larissa do Sul",
      "neighborhood": "Vitória",
      "description": "Voluptatibus non blanditiis repellendus quis quia fugit quisquam.\nNesciunt libero et eos voluptas vitae optio sunt alias.\nConsequuntur magni repudiandae eligendi eos consequatur ipsum.",
      "openHours": 70514,
      "address": "0432 Rafaela Ponte",
      "phone": "+55 (45) 9300-5142",
      "M4T": false,
      "photoUrl": "http://lorempixel.com/640/480/transport",
      "created": "2015-07-09T11:09:52.548Z",
      "updated": "2015-12-11T00:50:26.504Z",
      "lat": 26.2925,
      "lng": -97.8268
    },
    {
      "id": 70,
      "title": "Lead Identity Supervisor",
      "center": "Polo Município de Carlos do Sul",
      "state": "SP",
      "city": "Nova Alessandro",
      "neighborhood": "Felícia",
      "description": "Aliquid nihil quia reprehenderit.\nSit voluptatem labore harum provident est et et.\nRatione omnis excepturi.\nQuia velit qui sint corporis totam eos alias aliquid.\nDolorem aliquam et earum.\nNisi facere optio voluptates accusantium odit.",
      "openHours": 83642,
      "address": "798 Sílvia Alameda",
      "phone": "(46) 47818-0467",
      "M4T": false,
      "photoUrl": "http://lorempixel.com/640/480/sports",
      "created": "2015-08-16T13:36:27.918Z",
      "updated": "2015-04-20T15:50:42.069Z",
      "lat": 71.389,
      "lng": 22.0587
    },
    {
      "id": 71,
      "title": "Principal Applications Developer",
      "center": "Polo Grande Sílvia",
      "state": "DF",
      "city": "Velha Larissa do Sul",
      "neighborhood": "Hélio",
      "description": "Debitis voluptatem repudiandae in.\nNisi sit quis dolores deserunt repellat qui quia consectetur.\nPraesentium quia ut aspernatur natus et qui beatae.",
      "openHours": 99684,
      "address": "7837 Salvador Ponte",
      "phone": "+55 (40) 8315-8818",
      "M4T": false,
      "photoUrl": "http://lorempixel.com/640/480/city",
      "created": "2015-12-26T18:27:39.884Z",
      "updated": "2015-04-15T01:30:27.580Z",
      "lat": 62.8128,
      "lng": -103.3046
    },
    {
      "id": 72,
      "title": "Human Usability Manager",
      "center": "Polo Município de Carlos do Sul",
      "state": "SP",
      "city": "Nova Alessandro",
      "neighborhood": "Lucas",
      "description": "Vero dolorem optio et.\nSit repellat aut consequatur quia pariatur veritatis.\nUllam molestiae incidunt eos deserunt nemo exercitationem.\nQuis velit repellendus voluptatem aut deserunt et et totam est.\nEx quis cum delectus velit dolorem laboriosam magnam cupiditate sed.",
      "openHours": 50877,
      "address": "342 Macedo Marginal",
      "phone": "+55 (43) 2168-4340",
      "M4T": false,
      "photoUrl": "http://lorempixel.com/640/480/transport",
      "created": "2015-06-25T11:12:09.296Z",
      "updated": "2015-05-22T05:52:04.968Z",
      "lat": 16.0391,
      "lng": -144.4868
    },
    {
      "id": 73,
      "title": "Legacy Mobility Orchestrator",
      "center": "Polo Elísio do Sul",
      "state": "RJ",
      "city": "Núbia do Descoberto",
      "neighborhood": "Silas",
      "description": "Rem quas nesciunt ratione temporibus quo aliquid cum sed.\nCommodi quas aliquam sapiente possimus ut nisi sint inventore.\nDelectus eos officiis dolore cumque exercitationem excepturi explicabo earum.\nDucimus repellendus eaque dolore voluptatem quod in molestias.\nQui ratione qui.",
      "openHours": 70629,
      "address": "39279 Albuquerque Avenida",
      "phone": "(28) 0575-9825",
      "M4T": true,
      "photoUrl": "http://lorempixel.com/640/480/abstract",
      "created": "2015-10-25T10:45:55.734Z",
      "updated": "2015-09-10T08:35:44.804Z",
      "lat": 26.8691,
      "lng": 75.8001
    },
    {
      "id": 74,
      "title": "Chief Branding Liason",
      "center": "Polo Município de Carlos do Sul",
      "state": "RJ",
      "city": "Frederico do Sul",
      "neighborhood": "Karla",
      "description": "Facilis unde aspernatur reiciendis perspiciatis consectetur saepe consequatur.\nPariatur ut omnis ipsam consectetur ad iste.\nEveniet modi voluptatem est molestiae quia vel.\nNatus ut quaerat inventore voluptas eos sed ab.\nEt laboriosam reprehenderit sed.",
      "openHours": 23473,
      "address": "207 Pereira Rodovia",
      "phone": "(74) 35504-3402",
      "M4T": true,
      "photoUrl": "http://lorempixel.com/640/480/sports",
      "created": "2015-06-14T10:46:54.432Z",
      "updated": "2015-03-19T13:44:53.302Z",
      "lat": 2.3804,
      "lng": -48.0912
    },
    {
      "id": 75,
      "title": "Chief Assurance Analyst",
      "center": "Polo Grande Felícia",
      "state": "RO",
      "city": "Grande Heitor do Sul",
      "neighborhood": "Alessandro",
      "description": "Harum dicta et eum sed.\nQui et veritatis eum quo.\nVoluptatem architecto praesentium aut deleniti alias consectetur.",
      "openHours": 75295,
      "address": "14453 Batista Marginal",
      "phone": "(37) 75900-3377",
      "M4T": true,
      "photoUrl": "http://lorempixel.com/640/480/sports",
      "created": "2015-04-21T12:04:16.385Z",
      "updated": "2015-05-01T10:34:02.632Z",
      "lat": 61.098,
      "lng": 169.1326
    },
    {
      "id": 76,
      "title": "Dynamic Paradigm Representative",
      "center": "Polo Martins de Nossa Senhora",
      "state": "AP",
      "city": "Velha Marli do Norte",
      "neighborhood": "Alessandro",
      "description": "Dolorem quaerat provident et quo.\nEaque voluptas voluptatum exercitationem expedita deleniti reiciendis.\nQui rem aliquam vitae quia porro est nisi tempore voluptas.",
      "openHours": 49947,
      "address": "235 Talita Viela",
      "phone": "(60) 85543-8322",
      "M4T": false,
      "photoUrl": "http://lorempixel.com/640/480/business",
      "created": "2015-07-25T11:29:44.321Z",
      "updated": "2015-12-14T08:56:04.112Z",
      "lat": -13.6372,
      "lng": -38.9259
    },
    {
      "id": 77,
      "title": "Principal Accountability Consultant",
      "center": "Polo Velha Núbia do Descoberto",
      "state": "BA",
      "city": "Grande Deneval do Norte",
      "neighborhood": "Paula",
      "description": "Rerum similique est eos tempora voluptas aut.\nModi odit possimus repellat ea deleniti cum voluptatem unde architecto.\nId tempora ut.\nRecusandae officiis dolorum architecto aliquam aut vel commodi delectus.\nIllo est quasi vel deserunt aut numquam alias autem nisi.\nPraesentium velit et.",
      "openHours": 17902,
      "address": "9722 Oliveira Rua",
      "phone": "+55 (26) 4387-6384",
      "M4T": false,
      "photoUrl": "http://lorempixel.com/640/480/abstract",
      "created": "2015-03-24T14:38:59.470Z",
      "updated": "2016-01-10T04:40:02.317Z",
      "lat": -89.3024,
      "lng": 97.7483
    },
    {
      "id": 78,
      "title": "Central Creative Consultant",
      "center": "Polo Grande Carlos do Norte",
      "state": "PA",
      "city": "Carla do Sul",
      "neighborhood": "Vitória",
      "description": "Aut repellendus occaecati exercitationem voluptatum consequuntur beatae sed.\nQuis repellendus tempora placeat.\nVel culpa est dolore magnam perferendis.\nMagnam consectetur nemo delectus amet est rem corrupti.\nVoluptates a ut consequatur reiciendis minima aliquam ut.",
      "openHours": 3880,
      "address": "10899 Carlos Avenida",
      "phone": "(85) 04788-4494",
      "M4T": true,
      "photoUrl": "http://lorempixel.com/640/480/city",
      "created": "2015-08-21T17:05:24.028Z",
      "updated": "2015-12-16T10:13:31.892Z",
      "lat": 12.8051,
      "lng": 14.3061
    },
    {
      "id": 79,
      "title": "Forward Creative Developer",
      "center": "Polo Sirineu do Norte",
      "state": "GO",
      "city": "Vila Pablo do Norte",
      "neighborhood": "Eduardo",
      "description": "Delectus laborum assumenda inventore architecto qui quibusdam reiciendis.\nDistinctio numquam laborum esse voluptatum.\nOdio hic voluptas ducimus et omnis eveniet.\nHarum et aut soluta et qui nostrum et.\nQuam laboriosam vel deleniti est facilis consequatur a recusandae.",
      "openHours": 68728,
      "address": "38841 Nogueira Rodovia",
      "phone": "+55 (14) 1556-1175",
      "M4T": true,
      "photoUrl": "http://lorempixel.com/640/480/abstract",
      "created": "2015-10-06T19:15:03.004Z",
      "updated": "2015-08-27T07:14:24.972Z",
      "lat": 42.4281,
      "lng": -63.4083
    },
    {
      "id": 80,
      "title": "District Data Officer",
      "center": "Polo Município de Carlos do Sul",
      "state": "RJ",
      "city": "Frederico do Sul",
      "neighborhood": "Isabel",
      "description": "Cupiditate veniam sint quia accusantium harum.\nUt sed et.\nEt aliquam mollitia.\nNumquam ut id aut.",
      "openHours": 68595,
      "address": "583 Franco Travessa",
      "phone": "(66) 07942-3815",
      "M4T": false,
      "photoUrl": "http://lorempixel.com/640/480/food",
      "created": "2015-07-26T02:01:27.656Z",
      "updated": "2015-07-28T14:21:12.794Z",
      "lat": -20.5975,
      "lng": -161.2313
    },
    {
      "id": 81,
      "title": "Senior Assurance Manager",
      "center": "Polo Nova Norberto do Descoberto",
      "state": "RN",
      "city": "Grande Célia do Sul",
      "neighborhood": "Lorraine",
      "description": "Aut sequi ut quae quis sint adipisci et quam.\nSint facere odio consequatur voluptatem autem.\nVelit ab amet praesentium magnam repellendus voluptas voluptatem sint sit.\nUt nihil error soluta dicta consequatur.\nConsequatur illum et accusamus et dolor maxime minus nostrum.\nOccaecati nisi nihil sint voluptates asperiores vitae distinctio.",
      "openHours": 93531,
      "address": "765 Pereira Alameda",
      "phone": "(39) 7936-4488",
      "M4T": true,
      "photoUrl": "http://lorempixel.com/640/480/fashion",
      "created": "2015-07-27T15:12:01.634Z",
      "updated": "2015-04-13T10:26:19.946Z",
      "lat": -40.0738,
      "lng": -147.6826
    },
    {
      "id": 82,
      "title": "Corporate Paradigm Architect",
      "center": "Polo César de Nossa Senhora",
      "state": "MS",
      "city": "Município de Fabiano",
      "neighborhood": "Sílvia",
      "description": "Repellendus aut ab minus ut porro doloribus.\nSed quod est.\nUt debitis vel.",
      "openHours": 1664,
      "address": "348 Hélio Avenida",
      "phone": "(21) 3400-3964",
      "M4T": true,
      "photoUrl": "http://lorempixel.com/640/480/business",
      "created": "2015-08-24T19:30:58.017Z",
      "updated": "2016-02-28T05:55:25.285Z",
      "lat": -58.9224,
      "lng": -131.9763
    },
    {
      "id": 83,
      "title": "Regional Solutions Producer",
      "center": "Polo Velha Núbia do Descoberto",
      "state": "BA",
      "city": "Grande Deneval do Norte",
      "neighborhood": "Raul",
      "description": "Non nemo voluptates nam doloribus earum ut.\nRepellendus beatae hic ut a corrupti voluptas.\nEos nobis voluptates ut omnis rem non et.\nQuos magnam amet tenetur tempora ut hic.",
      "openHours": 42787,
      "address": "157 Santos Rodovia",
      "phone": "(52) 9849-9457",
      "M4T": false,
      "photoUrl": "http://lorempixel.com/640/480/city",
      "created": "2015-10-23T16:54:13.430Z",
      "updated": "2015-10-15T05:32:58.099Z",
      "lat": 51.3826,
      "lng": 36.0369
    },
    {
      "id": 84,
      "title": "National Directives Designer",
      "center": "Polo Elísio do Sul",
      "state": "RJ",
      "city": "Núbia do Descoberto",
      "neighborhood": "Suélen",
      "description": "Pariatur enim dolores voluptatibus quam occaecati expedita molestiae est libero.\nAdipisci omnis repellat quis explicabo et ipsa facere ducimus.\nSoluta aut occaecati ratione expedita officiis voluptate id veritatis nulla.\nDolorem enim vel nihil fugit iusto non animi.",
      "openHours": 25328,
      "address": "3075 Félix Travessa",
      "phone": "(33) 8297-4877",
      "M4T": true,
      "photoUrl": "http://lorempixel.com/640/480/people",
      "created": "2015-06-18T23:37:29.609Z",
      "updated": "2015-05-30T21:08:33.055Z",
      "lat": 61.9632,
      "lng": -178.1021
    },
    {
      "id": 85,
      "title": "Customer Factors Administrator",
      "center": "Polo Município de Yango",
      "state": "AL",
      "city": "Grande Júlia do Sul",
      "neighborhood": "Sílvia",
      "description": "Corporis qui distinctio qui quidem occaecati fuga ad iste.\nQui laboriosam omnis at.\nIllo laborum modi magni rerum.\nA error numquam voluptatibus.",
      "openHours": 9851,
      "address": "647 Fabrícia Rua",
      "phone": "(89) 40675-2974",
      "M4T": true,
      "photoUrl": "http://lorempixel.com/640/480/food",
      "created": "2015-05-19T08:08:14.022Z",
      "updated": "2016-01-22T21:36:31.538Z",
      "lat": 36.0078,
      "lng": -93.4136
    },
    {
      "id": 86,
      "title": "Legacy Solutions Planner",
      "center": "Polo Grande Rafaela",
      "state": "RS",
      "city": "Vila Joana",
      "neighborhood": "Roberto",
      "description": "Non officiis soluta.\nRatione aspernatur veniam accusantium.\nDoloribus distinctio aspernatur sunt illum qui.\nOfficiis dolor quibusdam id ex velit unde.\nTempora repellat quis sint dolore omnis cumque.",
      "openHours": 30566,
      "address": "021 Guilherme Travessa",
      "phone": "+55 (75) 6310-8359",
      "M4T": true,
      "photoUrl": "http://lorempixel.com/640/480/transport",
      "created": "2015-03-13T00:00:22.432Z",
      "updated": "2015-09-26T14:53:14.742Z",
      "lat": 63.0555,
      "lng": 111.239
    },
    {
      "id": 87,
      "title": "Global Brand Coordinator",
      "center": "Polo Joana do Sul",
      "state": "SC",
      "city": "Oliveira do Norte",
      "neighborhood": "Júlia",
      "description": "Tenetur ut inventore laborum cumque omnis.\nId totam perspiciatis est qui amet.\nEum accusamus ut.\nNisi nostrum ea consequatur sit ea qui recusandae.\nProvident magnam tempora molestiae quidem dicta.\nEa suscipit nihil facilis aperiam vel.",
      "openHours": 79031,
      "address": "65323 Guilherme Viela",
      "phone": "(57) 00551-8282",
      "M4T": false,
      "photoUrl": "http://lorempixel.com/640/480/technics",
      "created": "2015-04-17T22:28:38.709Z",
      "updated": "2016-01-19T12:25:35.866Z",
      "lat": 72.557,
      "lng": 162.2185
    },
    {
      "id": 88,
      "title": "Forward Usability Associate",
      "center": "Polo Grande Rafaela",
      "state": "RS",
      "city": "Vila Joana",
      "neighborhood": "Marcela",
      "description": "Architecto in voluptatem at sed et sit itaque.\nExpedita qui eaque.\nCommodi sint quis similique aspernatur facere eum neque.",
      "openHours": 52924,
      "address": "130 Costa Rodovia",
      "phone": "+55 (29) 1061-1957",
      "M4T": false,
      "photoUrl": "http://lorempixel.com/640/480/abstract",
      "created": "2016-02-19T15:02:22.610Z",
      "updated": "2015-11-07T13:42:02.531Z",
      "lat": 77.1553,
      "lng": -30.6944
    },
    {
      "id": 89,
      "title": "Internal Communications Officer",
      "center": "Polo César de Nossa Senhora",
      "state": "MS",
      "city": "Município de Fabiano",
      "neighborhood": "Feliciano",
      "description": "Maxime quibusdam molestias provident accusantium nostrum odio.\nQuidem ut in excepturi impedit aut earum qui quia libero.\nRepellendus sunt repudiandae rerum suscipit sed ratione aut doloribus iure.",
      "openHours": 77194,
      "address": "9303 Martins Ponte",
      "phone": "(94) 79704-2700",
      "M4T": true,
      "photoUrl": "http://lorempixel.com/640/480/sports",
      "created": "2015-05-31T06:47:23.050Z",
      "updated": "2015-12-11T06:34:06.819Z",
      "lat": -70.9963,
      "lng": -158.4895
    },
    {
      "id": 90,
      "title": "Forward Markets Designer",
      "center": "Polo Grande Sílvia",
      "state": "DF",
      "city": "Velha Larissa do Sul",
      "neighborhood": "Margarida",
      "description": "Beatae adipisci sed.\nVoluptatibus beatae sit est magnam necessitatibus ut.\nQui tenetur aut inventore laborum rerum voluptates sed.",
      "openHours": 43929,
      "address": "454 Souza Ponte",
      "phone": "+55 (59) 3627-1579",
      "M4T": false,
      "photoUrl": "http://lorempixel.com/640/480/business",
      "created": "2015-09-21T05:21:55.934Z",
      "updated": "2015-05-11T05:02:13.234Z",
      "lat": 53.4311,
      "lng": -129.08
    },
    {
      "id": 91,
      "title": "Forward Data Architect",
      "center": "Polo Grande Célia do Descoberto",
      "state": "PB",
      "city": "Melo de Nossa Senhora",
      "neighborhood": "Deneval",
      "description": "Minima dignissimos laboriosam.\nEarum voluptatum voluptatem culpa et repellendus eos corrupti atque quisquam.\nQuam saepe non aut cum nulla voluptatibus eos mollitia.",
      "openHours": 10048,
      "address": "8040 Moraes Rodovia",
      "phone": "(00) 78270-2181",
      "M4T": false,
      "photoUrl": "http://lorempixel.com/640/480/technics",
      "created": "2016-02-19T08:32:49.573Z",
      "updated": "2015-05-06T21:02:13.440Z",
      "lat": 74.8472,
      "lng": 8.3705
    },
    {
      "id": 92,
      "title": "District Functionality Assistant",
      "center": "Polo Hélio do Sul",
      "state": "ES",
      "city": "Município de Alessandra do Sul",
      "neighborhood": "Lorraine",
      "description": "Nesciunt corrupti iure sed rerum fugiat.\nQuia illo voluptates molestiae similique omnis omnis beatae.\nNesciunt sed quod voluptates sequi.\nAb optio enim.\nRepellendus sit ipsum numquam.",
      "openHours": 85801,
      "address": "8885 Ofélia Rua",
      "phone": "(59) 92100-7804",
      "M4T": true,
      "photoUrl": "http://lorempixel.com/640/480/transport",
      "created": "2015-07-07T08:56:42.191Z",
      "updated": "2015-05-28T17:10:00.060Z",
      "lat": 3.8293,
      "lng": -16.7564
    },
    {
      "id": 93,
      "title": "Dynamic Response Associate",
      "center": "Polo Nova Norberto do Descoberto",
      "state": "RN",
      "city": "Grande Célia do Sul",
      "neighborhood": "Vitória",
      "description": "Autem dolores enim.\nNecessitatibus esse impedit asperiores officiis quae similique.\nA corrupti at harum ipsum.\nEst consectetur quo vel temporibus eligendi molestiae nobis totam vero.\nCupiditate tempore impedit minus quia minima et deleniti.\nRatione quia repudiandae deserunt voluptas et.",
      "openHours": 25156,
      "address": "0042 Albuquerque Travessa",
      "phone": "+55 (23) 2292-8039",
      "M4T": true,
      "photoUrl": "http://lorempixel.com/640/480/cats",
      "created": "2015-06-05T09:45:39.723Z",
      "updated": "2016-02-23T02:39:28.747Z",
      "lat": 86.0265,
      "lng": 24.8881
    },
    {
      "id": 94,
      "title": "Product Operations Designer",
      "center": "Polo Velha Núbia do Descoberto",
      "state": "BA",
      "city": "Grande Deneval do Norte",
      "neighborhood": "Washington",
      "description": "Inventore fugiat soluta similique deleniti amet accusantium.\nVoluptate neque quo voluptatibus cupiditate qui placeat aut quia et.\nArchitecto temporibus ducimus quo consequatur omnis.\nEos optio autem occaecati quaerat.",
      "openHours": 55305,
      "address": "032 Bruna Travessa",
      "phone": "(80) 77688-3444",
      "M4T": false,
      "photoUrl": "http://lorempixel.com/640/480/business",
      "created": "2015-05-07T21:45:54.224Z",
      "updated": "2015-06-03T11:21:09.357Z",
      "lat": -74.5588,
      "lng": 4.472
    },
    {
      "id": 95,
      "title": "Customer Communications Executive",
      "center": "Polo Hélio do Sul",
      "state": "ES",
      "city": "Município de Alessandra do Sul",
      "neighborhood": "Kléber",
      "description": "Quo mollitia ut iure.\nOmnis aut error perferendis rem et sapiente recusandae.\nDicta deserunt autem omnis quasi est commodi aut consectetur.\nQuia officiis et enim ut perferendis sed dolorem magni magnam.",
      "openHours": 51697,
      "address": "2821 Costa Alameda",
      "phone": "(51) 87804-1549",
      "M4T": false,
      "photoUrl": "http://lorempixel.com/640/480/abstract",
      "created": "2016-02-19T20:22:53.882Z",
      "updated": "2015-08-23T03:21:27.330Z",
      "lat": 70.7661,
      "lng": 62.8394
    },
    {
      "id": 96,
      "title": "Legacy Optimization Specialist",
      "center": "Polo Sirineu do Norte",
      "state": "GO",
      "city": "Vila Pablo do Norte",
      "neighborhood": "Sara",
      "description": "Sint vel sed ut veniam ipsam.\nLaboriosam hic unde impedit incidunt veniam non.\nOdio nostrum et sint aut voluptates et magnam et a.",
      "openHours": 33194,
      "address": "94446 Santos Travessa",
      "phone": "(62) 47519-6801",
      "M4T": true,
      "photoUrl": "http://lorempixel.com/640/480/nature",
      "created": "2015-04-11T16:14:04.333Z",
      "updated": "2015-07-25T09:14:30.298Z",
      "lat": -82.2615,
      "lng": -164.0994
    },
    {
      "id": 97,
      "title": "Future Directives Manager",
      "center": "Polo Grande Sílvia",
      "state": "DF",
      "city": "Velha Larissa do Sul",
      "neighborhood": "Pedro",
      "description": "Veritatis similique sunt dolor voluptates.\nMinima vel sint est ad aut.\nId ex provident consequatur sit.\nConsequatur exercitationem architecto enim eaque accusantium aut.\nIusto ad vel est nemo blanditiis.\nPossimus sequi delectus.",
      "openHours": 81177,
      "address": "5516 Carvalho Marginal",
      "phone": "(45) 38727-9602",
      "M4T": true,
      "photoUrl": "http://lorempixel.com/640/480/abstract",
      "created": "2015-04-07T05:18:50.805Z",
      "updated": "2016-02-28T12:09:40.486Z",
      "lat": -40.2745,
      "lng": -92.0235
    },
    {
      "id": 98,
      "title": "Future Brand Specialist",
      "center": "Polo Velha Núbia do Descoberto",
      "state": "BA",
      "city": "Grande Deneval do Norte",
      "neighborhood": "Yango",
      "description": "Voluptate sint consequuntur voluptas dolores et accusantium.\nVoluptatem assumenda corrupti.\nDelectus est laboriosam omnis ut quos.\nImpedit harum quo.",
      "openHours": 34688,
      "address": "75142 Breno Ponte",
      "phone": "(04) 5346-4182",
      "M4T": true,
      "photoUrl": "http://lorempixel.com/640/480/abstract",
      "created": "2015-03-24T23:38:29.506Z",
      "updated": "2015-10-01T01:41:20.326Z",
      "lat": 76.7578,
      "lng": -46.477
    },
    {
      "id": 99,
      "title": "Product Web Planner",
      "center": "Polo Elísio do Sul",
      "state": "RJ",
      "city": "Núbia do Descoberto",
      "neighborhood": "Carlos",
      "description": "Iure omnis sed id et illum velit quos.\nAspernatur omnis modi iste inventore veritatis.\nAut perferendis suscipit sint magnam ex praesentium autem.\nRerum aliquid aperiam.\nDucimus et sunt nemo.\nEt dicta doloribus quia dignissimos vero delectus voluptas eum.",
      "openHours": 73453,
      "address": "612 Ricardo Ponte",
      "phone": "(01) 95544-8471",
      "M4T": true,
      "photoUrl": "http://lorempixel.com/640/480/cats",
      "created": "2016-02-18T16:39:02.524Z",
      "updated": "2015-12-07T14:41:55.379Z",
      "lat": -64.5617,
      "lng": -82.1469
    },
    {
      "id": 100,
      "title": "Principal Usability Officer",
      "center": "Polo Município de Carlos do Sul",
      "state": "RJ",
      "city": "Frederico do Sul",
      "neighborhood": "Yango",
      "description": "Nihil sunt in.\nMinus quia ullam.\nEt et suscipit quia est ut et consequatur.\nVelit perspiciatis sed ut nesciunt veniam.",
      "openHours": 5128,
      "address": "77078 Martins Viela",
      "phone": "(08) 8525-5430",
      "M4T": false,
      "photoUrl": "http://lorempixel.com/640/480/people",
      "created": "2015-11-21T02:00:57.792Z",
      "updated": "2015-04-05T06:53:59.777Z",
      "lat": -87.2038,
      "lng": -121.2857
    },
    {
      "id": 101,
      "title": "Central Tactics Liason",
      "center": "Polo Sirineu do Norte",
      "state": "GO",
      "city": "Vila Pablo do Norte",
      "neighborhood": "Roberto",
      "description": "Ut velit aut.\nEt harum sed laudantium sit ipsam ipsa sed illum rem.\nEnim deleniti labore veritatis et.\nDolore sit consequuntur.",
      "openHours": 54201,
      "address": "608 Sara Ponte",
      "phone": "(59) 46044-8065",
      "M4T": true,
      "photoUrl": "http://lorempixel.com/640/480/nightlife",
      "created": "2015-10-04T12:56:45.004Z",
      "updated": "2015-09-16T15:17:16.136Z",
      "lat": 11.2061,
      "lng": -42.062
    },
    {
      "id": 102,
      "title": "Lead Creative Director",
      "center": "Polo Velha Dalila do Sul",
      "state": "AP",
      "city": "Grande Ofélia",
      "neighborhood": "Paulo",
      "description": "Consequatur voluptas doloribus autem sunt inventore odio dignissimos consequatur sequi.\nVoluptas similique a et ullam eius veniam.\nPlaceat qui accusamus et iusto enim a itaque qui veniam.\nRepellat eaque placeat aliquid sunt molestiae ipsum aut.",
      "openHours": 93858,
      "address": "1213 Batista Avenida",
      "phone": "+55 (33) 7781-5750",
      "M4T": true,
      "photoUrl": "http://lorempixel.com/640/480/business",
      "created": "2015-07-26T11:14:18.444Z",
      "updated": "2015-10-23T11:32:57.615Z",
      "lat": 22.0763,
      "lng": 162.0434
    },
    {
      "id": 103,
      "title": "Customer Tactics Consultant",
      "center": "Polo Elísio do Sul",
      "state": "RJ",
      "city": "Núbia do Descoberto",
      "neighborhood": "Rafaela",
      "description": "Perferendis molestiae sint.\nEt occaecati ut ullam exercitationem eos qui.\nItaque reiciendis voluptates a.",
      "openHours": 37176,
      "address": "921 Meire Ponte",
      "phone": "(04) 10821-4437",
      "M4T": false,
      "photoUrl": "http://lorempixel.com/640/480/business",
      "created": "2015-10-21T11:04:05.788Z",
      "updated": "2015-06-13T01:46:58.181Z",
      "lat": 20.9504,
      "lng": 128.4117
    },
    {
      "id": 104,
      "title": "Dynamic Response Liason",
      "center": "Polo Grande Carlos do Norte",
      "state": "PA",
      "city": "Carla do Sul",
      "neighborhood": "Elísio",
      "description": "Accusamus et natus vel distinctio tenetur.\nIste labore non et officiis est sed optio et.\nTempora ratione corporis.",
      "openHours": 24961,
      "address": "17844 Marcela Ponte",
      "phone": "+55 (20) 1103-3118",
      "M4T": true,
      "photoUrl": "http://lorempixel.com/640/480/nightlife",
      "created": "2015-09-21T09:58:26.855Z",
      "updated": "2016-03-09T12:00:04.074Z",
      "lat": 24.0642,
      "lng": 4.6789
    },
    {
      "id": 105,
      "title": "Corporate Directives Executive",
      "center": "Polo Moraes do Norte",
      "state": "ES",
      "city": "Batista do Norte",
      "neighborhood": "Lorena",
      "description": "Et reprehenderit quia numquam eligendi quisquam natus.\nAutem voluptas et nesciunt.\nVel asperiores dolor tenetur.\nIpsa qui rerum et sed aspernatur.\nCumque facilis culpa est consequuntur sequi perferendis.\nEt et possimus aut.",
      "openHours": 3707,
      "address": "40635 Pablo Rodovia",
      "phone": "+55 (06) 1168-3666",
      "M4T": true,
      "photoUrl": "http://lorempixel.com/640/480/animals",
      "created": "2016-01-26T11:35:33.566Z",
      "updated": "2015-08-05T18:01:48.667Z",
      "lat": -13.3197,
      "lng": 177.1205
    },
    {
      "id": 106,
      "title": "Internal Security Architect",
      "center": "Polo Meire do Norte",
      "state": "RJ",
      "city": "Raul do Descoberto",
      "neighborhood": "Roberto",
      "description": "Possimus eligendi et laboriosam eos minus cum repellendus aut.\nEst consequatur tenetur.\nEst incidunt itaque dolore quam qui expedita aut qui.\nAb expedita neque ad quia hic unde.\nVeniam officiis voluptatem sunt sed aut et nostrum.",
      "openHours": 29622,
      "address": "06343 Souza Avenida",
      "phone": "(15) 9245-6293",
      "M4T": true,
      "photoUrl": "http://lorempixel.com/640/480/business",
      "created": "2015-06-30T08:50:43.227Z",
      "updated": "2015-09-13T06:10:12.482Z",
      "lat": -50.9974,
      "lng": 128.1597
    },
    {
      "id": 107,
      "title": "Dynamic Quality Architect",
      "center": "Polo Município de Carlos do Sul",
      "state": "RJ",
      "city": "Frederico do Sul",
      "neighborhood": "Sílvia",
      "description": "Quidem ratione et et repudiandae in exercitationem sunt voluptas.\nQuos modi et deleniti et ut et minima.\nPraesentium nesciunt dolor voluptas officia quam blanditiis sint.\nQuam dicta dolorum porro.",
      "openHours": 19141,
      "address": "1723 Costa Travessa",
      "phone": "+55 (10) 2054-5204",
      "M4T": true,
      "photoUrl": "http://lorempixel.com/640/480/technics",
      "created": "2015-04-11T18:39:10.267Z",
      "updated": "2016-01-28T11:41:30.282Z",
      "lat": -2.4932,
      "lng": -155.5318
    },
    {
      "id": 108,
      "title": "Dynamic Research Consultant",
      "center": "Polo Carvalho do Sul",
      "state": "ES",
      "city": "Silva do Norte",
      "neighborhood": "João",
      "description": "Eos tempora similique eligendi non ea.\nAut voluptatem et aut in in molestiae.\nMolestiae expedita quo excepturi.\nLaboriosam ipsam quasi minima qui iure enim dolorem ut.",
      "openHours": 73173,
      "address": "448 Saraiva Rodovia",
      "phone": "(90) 0064-2960",
      "M4T": false,
      "photoUrl": "http://lorempixel.com/640/480/animals",
      "created": "2015-09-20T12:21:30.920Z",
      "updated": "2016-01-30T07:46:30.301Z",
      "lat": 68.8298,
      "lng": 141.9601
    },
    {
      "id": 109,
      "title": "Human Implementation Strategist",
      "center": "Polo Município de Pablo",
      "state": "BA",
      "city": "Velha Heitor",
      "neighborhood": "Gúbio",
      "description": "Voluptatem aliquam sint.\nQui fugit accusantium modi et corporis esse culpa nesciunt sapiente.\nVoluptatem quam beatae fugiat debitis a et quis dolorem blanditiis.\nTempora rerum non maiores.\nArchitecto repellendus similique et aut.\nDeserunt et reprehenderit dolor fugiat aliquid sapiente voluptas recusandae.",
      "openHours": 42853,
      "address": "085 Danilo Viela",
      "phone": "(05) 6708-0644",
      "M4T": false,
      "photoUrl": "http://lorempixel.com/640/480/animals",
      "created": "2015-12-11T01:03:33.725Z",
      "updated": "2015-05-07T02:22:31.321Z",
      "lat": -42.0122,
      "lng": -138.8205
    },
    {
      "id": 110,
      "title": "Direct Tactics Director",
      "center": "Polo Município de Pablo",
      "state": "BA",
      "city": "Velha Heitor",
      "neighborhood": "Alessandra",
      "description": "Fuga et optio quibusdam dolor quia.\nConsequatur numquam quidem.\nQuis et eum numquam perferendis non a.\nLaudantium consectetur soluta velit.",
      "openHours": 74281,
      "address": "88883 Yuri Rodovia",
      "phone": "(67) 02073-5696",
      "M4T": true,
      "photoUrl": "http://lorempixel.com/640/480/food",
      "created": "2015-09-14T10:48:37.242Z",
      "updated": "2015-09-23T13:49:31.925Z",
      "lat": -70.8897,
      "lng": 52.1697
    },
    {
      "id": 111,
      "title": "Chief Metrics Orchestrator",
      "center": "Polo Grande Félix",
      "state": "PR",
      "city": "Pereira de Nossa Senhora",
      "neighborhood": "Guilherme",
      "description": "Corporis quaerat eum blanditiis.\nConsequuntur occaecati qui nihil qui omnis enim et adipisci neque.\nMolestias accusamus voluptates illo aut est ut enim eveniet.\nRerum aliquid delectus dolores incidunt adipisci dolorem sed tempore autem.\nQuis omnis et praesentium.\nQuia est ipsum dolor tempore esse ratione quo dolores.",
      "openHours": 75422,
      "address": "66240 Silva Viela",
      "phone": "(76) 8083-8907",
      "M4T": true,
      "photoUrl": "http://lorempixel.com/640/480/animals",
      "created": "2015-04-01T05:36:31.930Z",
      "updated": "2015-12-22T08:13:54.166Z",
      "lat": -15.9809,
      "lng": 161.8325
    },
    {
      "id": 112,
      "title": "Chief Branding Designer",
      "center": "Polo Grande Rafaela",
      "state": "RS",
      "city": "Vila Joana",
      "neighborhood": "Janaína",
      "description": "Repellendus ea ipsam ad.\nVoluptate pariatur aliquid maxime esse voluptatem itaque est.\nAssumenda incidunt aut esse quis recusandae quidem.",
      "openHours": 24698,
      "address": "427 Célia Marginal",
      "phone": "(78) 2388-9848",
      "M4T": false,
      "photoUrl": "http://lorempixel.com/640/480/abstract",
      "created": "2015-07-12T19:43:47.399Z",
      "updated": "2015-06-13T14:34:30.762Z",
      "lat": 74.605,
      "lng": -119.2721
    },
    {
      "id": 113,
      "title": "International Research Administrator",
      "center": "Polo Sirineu do Norte",
      "state": "GO",
      "city": "Vila Pablo do Norte",
      "neighborhood": "Heitor",
      "description": "Qui delectus ducimus doloribus aut voluptates.\nEum a et eos nihil quas deserunt.\nAperiam quasi nisi voluptas quod.",
      "openHours": 29152,
      "address": "384 Albuquerque Marginal",
      "phone": "+55 (27) 4898-1578",
      "M4T": true,
      "photoUrl": "http://lorempixel.com/640/480/city",
      "created": "2015-10-14T02:35:20.873Z",
      "updated": "2015-04-08T06:13:10.286Z",
      "lat": -22.5913,
      "lng": 12.1303
    },
    {
      "id": 114,
      "title": "Customer Interactions Manager",
      "center": "Polo Hélio do Sul",
      "state": "ES",
      "city": "Município de Alessandra do Sul",
      "neighborhood": "Alexandre",
      "description": "Molestiae blanditiis laboriosam rerum.\nEius suscipit quasi dolor ea id reiciendis enim aut.\nExercitationem totam rerum.\nDeserunt sequi magni rem.\nIn enim id inventore.",
      "openHours": 68397,
      "address": "77089 Alessandra Rodovia",
      "phone": "(56) 08893-3656",
      "M4T": true,
      "photoUrl": "http://lorempixel.com/640/480/nightlife",
      "created": "2015-12-23T13:08:00.253Z",
      "updated": "2015-06-08T05:25:38.480Z",
      "lat": -52.2936,
      "lng": 110.1159
    },
    {
      "id": 115,
      "title": "Dynamic Paradigm Manager",
      "center": "Polo Nova Norberto do Descoberto",
      "state": "RN",
      "city": "Grande Célia do Sul",
      "neighborhood": "Vicente",
      "description": "Et vero rerum dicta et sed odit.\nPerspiciatis excepturi dignissimos mollitia adipisci incidunt dolor beatae et.\nEa nihil veritatis dolore.\nNisi asperiores neque.\nPraesentium occaecati hic et dolores voluptate repudiandae.",
      "openHours": 57200,
      "address": "2177 Costa Rua",
      "phone": "(08) 8028-6771",
      "M4T": true,
      "photoUrl": "http://lorempixel.com/640/480/people",
      "created": "2015-05-28T12:17:53.471Z",
      "updated": "2016-01-03T04:45:10.722Z",
      "lat": -68.2514,
      "lng": -115.6211
    },
    {
      "id": 116,
      "title": "Product Research Designer",
      "center": "Polo Grande Rafaela",
      "state": "RS",
      "city": "Vila Joana",
      "neighborhood": "Feliciano",
      "description": "Ea debitis provident.\nQuis sapiente quia odit aut.\nTemporibus ut laboriosam ipsam.\nQuo voluptatum quasi magnam vel error.\nVelit iusto quas magni reprehenderit exercitationem praesentium qui.",
      "openHours": 87863,
      "address": "4053 Batista Rua",
      "phone": "+55 (97) 2345-4879",
      "M4T": true,
      "photoUrl": "http://lorempixel.com/640/480/transport",
      "created": "2015-09-20T21:39:12.553Z",
      "updated": "2016-01-19T19:49:16.755Z",
      "lat": -89.215,
      "lng": 21.8565
    },
    {
      "id": 117,
      "title": "National Quality Agent",
      "center": "Polo Martins de Nossa Senhora",
      "state": "AP",
      "city": "Velha Marli do Norte",
      "neighborhood": "Vitória",
      "description": "Voluptatum nihil blanditiis aspernatur modi in tempore eveniet non animi.\nVelit deserunt delectus explicabo rerum nulla animi architecto sequi.\nEum aut est ea ipsum maiores esse.\nCumque recusandae et est sint ipsa quis.",
      "openHours": 78255,
      "address": "02559 Barros Viela",
      "phone": "(72) 74741-1418",
      "M4T": true,
      "photoUrl": "http://lorempixel.com/640/480/food",
      "created": "2015-12-06T06:27:29.273Z",
      "updated": "2015-08-15T14:15:39.654Z",
      "lat": 65.072,
      "lng": 94.1311
    },
    {
      "id": 118,
      "title": "Dynamic Optimization Designer",
      "center": "Polo Elísio do Sul",
      "state": "RJ",
      "city": "Núbia do Descoberto",
      "neighborhood": "Hugo",
      "description": "Dolorem ad id qui et nesciunt ut qui qui.\nCumque optio qui voluptatum hic consequatur possimus iusto.\nVoluptatem asperiores reiciendis illo sequi non.",
      "openHours": 3077,
      "address": "6604 César Ponte",
      "phone": "(62) 0991-1239",
      "M4T": true,
      "photoUrl": "http://lorempixel.com/640/480/cats",
      "created": "2015-07-17T14:06:14.138Z",
      "updated": "2015-12-18T06:04:39.701Z",
      "lat": 22.7217,
      "lng": 123.3584
    },
    {
      "id": 119,
      "title": "Customer Tactics Associate",
      "center": "Polo Joana do Sul",
      "state": "SC",
      "city": "Oliveira do Norte",
      "neighborhood": "Célia",
      "description": "Et dolor iusto harum vitae officia nihil.\nSoluta perferendis sed quo aperiam earum quia.\nEsse nisi neque qui placeat repudiandae qui aut.\nTotam maiores beatae ea illum placeat autem culpa voluptatem.",
      "openHours": 81256,
      "address": "461 Franco Viela",
      "phone": "(75) 8746-3349",
      "M4T": false,
      "photoUrl": "http://lorempixel.com/640/480/transport",
      "created": "2016-01-02T11:40:38.113Z",
      "updated": "2015-06-13T14:15:15.489Z",
      "lat": -9.3148,
      "lng": -61.6009
    },
    {
      "id": 120,
      "title": "Internal Group Architect",
      "center": "Polo Moraes do Norte",
      "state": "ES",
      "city": "Batista do Norte",
      "neighborhood": "Yuri",
      "description": "Eum aut consequuntur reiciendis et aut natus molestias.\nAtque hic fuga ut itaque sunt.\nUt vel et.\nEnim qui numquam eaque deleniti iure non alias est.",
      "openHours": 36128,
      "address": "53713 Morgana Viela",
      "phone": "+55 (96) 8300-9854",
      "M4T": true,
      "photoUrl": "http://lorempixel.com/640/480/cats",
      "created": "2016-01-12T03:12:07.580Z",
      "updated": "2015-09-11T17:09:26.149Z",
      "lat": -68.52,
      "lng": -48.1134
    },
    {
      "id": 121,
      "title": "Product Research Technician",
      "center": "Polo Vila Danilo",
      "state": "CE",
      "city": "Pereira de Nossa Senhora",
      "neighborhood": "Suélen",
      "description": "Tempora aliquam officiis porro libero esse dolorem totam natus.\nVoluptas ipsum voluptatem et ipsam rerum voluptatem recusandae.\nOfficia voluptatum reiciendis quidem id nostrum numquam ut a.\nFacere et nobis maiores beatae qui placeat qui consequatur earum.",
      "openHours": 27496,
      "address": "95547 Maria Rua",
      "phone": "(23) 0359-7481",
      "M4T": true,
      "photoUrl": "http://lorempixel.com/640/480/sports",
      "created": "2015-10-07T13:26:05.828Z",
      "updated": "2015-10-01T04:57:18.810Z",
      "lat": 82.2521,
      "lng": -150.0025
    },
    {
      "id": 122,
      "title": "Legacy Factors Orchestrator",
      "center": "Polo Velha Núbia do Descoberto",
      "state": "BA",
      "city": "Grande Deneval do Norte",
      "neighborhood": "Alessandra",
      "description": "Accusantium iusto assumenda et ea suscipit cupiditate fugit laudantium.\nEum fugiat omnis et sapiente eos dolorem.\nConsequatur modi vel at molestiae praesentium.",
      "openHours": 95986,
      "address": "8588 Dalila Alameda",
      "phone": "(66) 6472-1947",
      "M4T": true,
      "photoUrl": "http://lorempixel.com/640/480/nature",
      "created": "2015-07-23T22:08:29.771Z",
      "updated": "2015-11-06T03:22:24.965Z",
      "lat": -88.1056,
      "lng": 121.6382
    },
    {
      "id": 123,
      "title": "Investor Applications Technician",
      "center": "Polo Grande Sílvia",
      "state": "DF",
      "city": "Velha Larissa do Sul",
      "neighborhood": "Tertuliano",
      "description": "Modi voluptas quia similique ut omnis.\nIllum ab ratione dolor recusandae quis omnis.\nSunt ad ut fuga dolore autem.\nSed qui blanditiis non eius similique qui et nam illo.",
      "openHours": 21553,
      "address": "98756 Saraiva Viela",
      "phone": "(47) 9126-3487",
      "M4T": true,
      "photoUrl": "http://lorempixel.com/640/480/people",
      "created": "2015-08-17T04:41:23.030Z",
      "updated": "2016-02-18T19:33:57.753Z",
      "lat": 78.8894,
      "lng": 13.6129
    },
    {
      "id": 124,
      "title": "Global Response Director",
      "center": "Polo Moraes do Norte",
      "state": "ES",
      "city": "Batista do Norte",
      "neighborhood": "Gúbio",
      "description": "Odit perspiciatis qui et et pariatur veniam nisi.\nDeleniti consequatur fuga sunt animi ipsa qui.\nLaborum ex et iste.\nEx officiis quisquam earum aliquid est.",
      "openHours": 10520,
      "address": "455 Xavier Avenida",
      "phone": "(35) 07420-9994",
      "M4T": true,
      "photoUrl": "http://lorempixel.com/640/480/business",
      "created": "2015-10-17T17:08:57.764Z",
      "updated": "2016-02-08T02:31:14.610Z",
      "lat": -65.093,
      "lng": -163.651
    },
    {
      "id": 125,
      "title": "Senior Mobility Specialist",
      "center": "Polo Município de Dalila do Sul",
      "state": "MT",
      "city": "Frederico de Nossa Senhora",
      "neighborhood": "Alexandre",
      "description": "Et possimus et enim distinctio ipsam eos.\nRepudiandae quos recusandae sapiente ad sed sint autem.\nIn est consectetur itaque aut ad voluptate hic quaerat.\nVitae eum labore vero dignissimos molestias itaque omnis.",
      "openHours": 33955,
      "address": "68363 Warley Ponte",
      "phone": "(30) 81436-5587",
      "M4T": false,
      "photoUrl": "http://lorempixel.com/640/480/abstract",
      "created": "2015-07-28T23:26:34.227Z",
      "updated": "2015-08-11T20:40:36.883Z",
      "lat": 31.417,
      "lng": -138.2655
    },
    {
      "id": 126,
      "title": "Global Creative Supervisor",
      "center": "Polo Velha Núbia do Descoberto",
      "state": "BA",
      "city": "Grande Deneval do Norte",
      "neighborhood": "Yango",
      "description": "Id dolore perspiciatis est magni.\nAccusamus aut tempore culpa.\nEos nemo assumenda aliquam dolor ex sit dicta reprehenderit aut.\nError dolores enim fuga qui autem.\nNemo ducimus accusantium earum quas omnis asperiores.",
      "openHours": 84638,
      "address": "188 Morgana Alameda",
      "phone": "(22) 73549-6443",
      "M4T": true,
      "photoUrl": "http://lorempixel.com/640/480/transport",
      "created": "2015-10-05T19:25:27.390Z",
      "updated": "2015-12-24T11:13:11.013Z",
      "lat": 26.329,
      "lng": -87.1622
    },
    {
      "id": 127,
      "title": "Senior Research Coordinator",
      "center": "Polo Vila Meire",
      "state": "MA",
      "city": "Nova Marcos do Descoberto",
      "neighborhood": "Roberta",
      "description": "Recusandae est consequatur vitae minus in.\nVoluptas quia explicabo et eveniet quia et voluptatibus nostrum.\nLibero et est dolorum ea soluta.\nVoluptatem aliquam eius.",
      "openHours": 50961,
      "address": "0431 Alessandro Alameda",
      "phone": "+55 (40) 5320-4277",
      "M4T": false,
      "photoUrl": "http://lorempixel.com/640/480/technics",
      "created": "2016-01-23T17:26:23.499Z",
      "updated": "2015-03-18T11:19:28.096Z",
      "lat": -52.4388,
      "lng": -128.6291
    },
    {
      "id": 128,
      "title": "Lead Directives Supervisor",
      "center": "Polo Município de Carlos do Sul",
      "state": "RJ",
      "city": "Frederico do Sul",
      "neighborhood": "Eduarda",
      "description": "Dolorum nobis doloribus rerum et qui.\nEos omnis commodi voluptatibus autem maiores mollitia distinctio.\nItaque asperiores facilis voluptatem omnis possimus optio maiores sit.",
      "openHours": 8484,
      "address": "51667 Xavier Rodovia",
      "phone": "+55 (85) 0005-6843",
      "M4T": true,
      "photoUrl": "http://lorempixel.com/640/480/sports",
      "created": "2015-07-02T09:28:41.849Z",
      "updated": "2015-12-21T10:55:11.264Z",
      "lat": 39.9844,
      "lng": 24.0592
    },
    {
      "id": 129,
      "title": "Dynamic Implementation Coordinator",
      "center": "Polo Velha Dalila do Sul",
      "state": "AP",
      "city": "Grande Ofélia",
      "neighborhood": "Suélen",
      "description": "Fugiat quisquam qui.\nTempora molestiae voluptas dolorum.\nDucimus facere inventore ut.\nNemo ea debitis dolores voluptas eos.\nMolestiae rerum delectus nesciunt sit iure ipsa architecto.",
      "openHours": 68084,
      "address": "3208 Margarida Marginal",
      "phone": "+55 (18) 5147-8511",
      "M4T": false,
      "photoUrl": "http://lorempixel.com/640/480/people",
      "created": "2015-06-11T11:22:38.211Z",
      "updated": "2015-11-22T10:58:30.173Z",
      "lat": -21.6691,
      "lng": -69.7238
    },
    {
      "id": 130,
      "title": "Senior Identity Engineer",
      "center": "Polo Marcela do Sul",
      "state": "RS",
      "city": "Silva de Nossa Senhora",
      "neighborhood": "Roberto",
      "description": "Quia esse voluptate culpa rerum.\nSit in est est.\nSunt qui repudiandae nemo quo.\nUnde itaque dolor consequuntur ipsum iure voluptates.\nEt et minima.\nError cupiditate sit quas ipsa suscipit.",
      "openHours": 98470,
      "address": "0875 Pablo Rodovia",
      "phone": "+55 (08) 6752-4860",
      "M4T": true,
      "photoUrl": "http://lorempixel.com/640/480/cats",
      "created": "2015-07-16T02:23:11.853Z",
      "updated": "2015-09-06T10:37:54.289Z",
      "lat": -26.5609,
      "lng": -100.1267
    },
    {
      "id": 131,
      "title": "Future Configuration Coordinator",
      "center": "Polo Sara do Norte",
      "state": "DF",
      "city": "Santos do Descoberto",
      "neighborhood": "Sirineu",
      "description": "Perspiciatis asperiores beatae.\nQuas incidunt ut vel ipsum itaque sapiente.\nUt delectus eius harum tempora architecto neque.",
      "openHours": 54344,
      "address": "9141 Breno Alameda",
      "phone": "(41) 4312-5790",
      "M4T": true,
      "photoUrl": "http://lorempixel.com/640/480/technics",
      "created": "2016-02-05T08:47:06.217Z",
      "updated": "2015-07-06T01:39:28.700Z",
      "lat": -44.2513,
      "lng": 91.6974
    },
    {
      "id": 132,
      "title": "Senior Interactions Liason",
      "center": "Polo Sara do Norte",
      "state": "DF",
      "city": "Santos do Descoberto",
      "neighborhood": "Elísio",
      "description": "Quis accusamus quia nisi est molestias consectetur cupiditate possimus eos.\nSunt quas suscipit quam nisi pariatur nesciunt at sit.\nVel incidunt explicabo rerum nesciunt eum autem quisquam.\nOdio porro neque quibusdam non dolore commodi.\nPerferendis suscipit amet.\nAssumenda qui doloremque.",
      "openHours": 79609,
      "address": "17902 Yago Rodovia",
      "phone": "+55 (89) 6921-9844",
      "M4T": true,
      "photoUrl": "http://lorempixel.com/640/480/fashion",
      "created": "2015-10-06T04:30:11.050Z",
      "updated": "2015-06-14T15:01:24.457Z",
      "lat": 3.7392,
      "lng": 155.0989
    },
    {
      "id": 133,
      "title": "Human Branding Technician",
      "center": "Polo Velha Núbia do Descoberto",
      "state": "BA",
      "city": "Grande Deneval do Norte",
      "neighborhood": "Elísio",
      "description": "Delectus assumenda omnis nulla alias quae impedit.\nAutem nisi repellendus voluptate sed alias.\nRatione similique voluptatem eos illo ad voluptas dolorem sit aliquam.\nDignissimos molestias harum.\nEst eius dolor id facilis sit et quia doloribus aperiam.",
      "openHours": 46990,
      "address": "31677 Martins Ponte",
      "phone": "(14) 6176-6461",
      "M4T": false,
      "photoUrl": "http://lorempixel.com/640/480/technics",
      "created": "2015-11-11T08:38:57.956Z",
      "updated": "2015-11-15T02:20:55.732Z",
      "lat": 65.0855,
      "lng": 114.5478
    },
    {
      "id": 134,
      "title": "Dynamic Integration Director",
      "center": "Polo Marcela do Sul",
      "state": "RS",
      "city": "Silva de Nossa Senhora",
      "neighborhood": "Nataniel",
      "description": "Qui sit nesciunt et sint eveniet.\nAt possimus explicabo consectetur soluta voluptatum quis dicta sit recusandae.\nAut amet facere impedit praesentium blanditiis nemo.",
      "openHours": 54888,
      "address": "6033 Albuquerque Avenida",
      "phone": "(36) 7047-4567",
      "M4T": true,
      "photoUrl": "http://lorempixel.com/640/480/abstract",
      "created": "2016-02-29T02:39:46.827Z",
      "updated": "2015-09-14T19:28:12.829Z",
      "lat": -18.0172,
      "lng": 86.5393
    },
    {
      "id": 135,
      "title": "Chief Web Agent",
      "center": "Polo Grande Danilo do Descoberto",
      "state": "RO",
      "city": "Joana do Descoberto",
      "neighborhood": "Paula",
      "description": "Quo sit quod laboriosam voluptatem perferendis.\nMolestias nostrum eos sed quibusdam facere architecto.\nOmnis a molestiae et.\nEt illum aut eius eos itaque neque.",
      "openHours": 54760,
      "address": "7424 Sara Alameda",
      "phone": "(50) 36657-6856",
      "M4T": false,
      "photoUrl": "http://lorempixel.com/640/480/business",
      "created": "2015-10-04T05:44:34.961Z",
      "updated": "2015-10-02T12:48:53.202Z",
      "lat": 60.2386,
      "lng": 11.365
    },
    {
      "id": 136,
      "title": "International Markets Agent",
      "center": "Polo Joana do Sul",
      "state": "SC",
      "city": "Oliveira do Norte",
      "neighborhood": "Suélen",
      "description": "Dolore qui a nobis dolorem nostrum qui consectetur et voluptatem.\nIpsa et nemo aliquam accusantium labore velit et vel dolores.\nQuod ab cupiditate amet.\nExplicabo exercitationem iusto blanditiis eos et cum rerum sapiente nulla.",
      "openHours": 4346,
      "address": "321 Rafael Rodovia",
      "phone": "(08) 49312-1344",
      "M4T": true,
      "photoUrl": "http://lorempixel.com/640/480/food",
      "created": "2015-07-05T16:04:21.632Z",
      "updated": "2015-11-15T06:28:24.772Z",
      "lat": -85.5135,
      "lng": 55.0449
    },
    {
      "id": 137,
      "title": "International Metrics Specialist",
      "center": "Polo Ladislau do Norte",
      "state": "ES",
      "city": "Martins de Nossa Senhora",
      "neighborhood": "Tertuliano",
      "description": "Impedit deleniti iste enim dolores.\nPlaceat expedita exercitationem laudantium dicta perspiciatis recusandae sit quis neque.\nSunt qui eos debitis sed quis.",
      "openHours": 78184,
      "address": "8916 Rafaela Marginal",
      "phone": "(33) 3800-9995",
      "M4T": true,
      "photoUrl": "http://lorempixel.com/640/480/transport",
      "created": "2015-08-06T14:28:16.595Z",
      "updated": "2015-10-02T15:34:56.187Z",
      "lat": 51.3815,
      "lng": -60.7589
    },
    {
      "id": 138,
      "title": "Investor Response Administrator",
      "center": "Polo Ladislau do Norte",
      "state": "ES",
      "city": "Martins de Nossa Senhora",
      "neighborhood": "Isabel",
      "description": "Quo facilis numquam.\nAspernatur quo vero voluptatem voluptatem nam repellendus ipsam in quod.\nAspernatur accusamus enim.\nCupiditate inventore dolor atque est.\nUt culpa maxime.",
      "openHours": 80628,
      "address": "3018 Ricardo Rua",
      "phone": "(88) 51829-2029",
      "M4T": true,
      "photoUrl": "http://lorempixel.com/640/480/sports",
      "created": "2015-08-16T09:39:04.795Z",
      "updated": "2016-02-22T05:07:44.816Z",
      "lat": 36.4755,
      "lng": 11.6781
    },
    {
      "id": 139,
      "title": "Forward Marketing Officer",
      "center": "Polo Grande Sílvia",
      "state": "DF",
      "city": "Velha Larissa do Sul",
      "neighborhood": "Marcela",
      "description": "Et non laudantium.\nTempora ipsum quam beatae ratione recusandae maxime tenetur voluptas suscipit.\nQui voluptas ab ea totam non ipsam libero rem.\nEnim repudiandae velit sequi doloremque corrupti ab.\nIure libero labore ut exercitationem.",
      "openHours": 69758,
      "address": "2415 Lucas Viela",
      "phone": "(05) 71245-9889",
      "M4T": false,
      "photoUrl": "http://lorempixel.com/640/480/technics",
      "created": "2015-10-20T23:40:52.385Z",
      "updated": "2015-10-26T07:20:09.623Z",
      "lat": 47.9275,
      "lng": -88.3938
    },
    {
      "id": 140,
      "title": "Lead Applications Administrator",
      "center": "Polo Grande Sílvia",
      "state": "DF",
      "city": "Velha Larissa do Sul",
      "neighborhood": "Marli",
      "description": "Distinctio fugiat ipsam qui blanditiis omnis et repellendus.\nSit aliquid omnis doloribus sed fuga.\nPerspiciatis reprehenderit quo eaque fugit mollitia.\nUt quae enim et neque quidem distinctio cum aut et.\nAnimi et aut natus dolorum.",
      "openHours": 18116,
      "address": "08338 Carvalho Avenida",
      "phone": "(33) 8525-2542",
      "M4T": false,
      "photoUrl": "http://lorempixel.com/640/480/cats",
      "created": "2015-10-25T21:25:47.741Z",
      "updated": "2015-09-21T10:28:28.337Z",
      "lat": 61.8427,
      "lng": -4.7384
    },
    {
      "id": 141,
      "title": "Customer Accountability Designer",
      "center": "Polo Velha Núbia do Descoberto",
      "state": "BA",
      "city": "Grande Deneval do Norte",
      "neighborhood": "Rafaela",
      "description": "Voluptates asperiores labore similique ex.\nConsequuntur unde error.\nImpedit nobis est aut rerum illum illo.\nQuia placeat officia.",
      "openHours": 36272,
      "address": "382 Feliciano Viela",
      "phone": "+55 (13) 3396-9785",
      "M4T": true,
      "photoUrl": "http://lorempixel.com/640/480/animals",
      "created": "2015-10-28T16:58:26.404Z",
      "updated": "2016-03-08T04:58:56.032Z",
      "lat": -21.1309,
      "lng": -64.4819
    },
    {
      "id": 142,
      "title": "Dynamic Tactics Architect",
      "center": "Polo Grande Isabel do Sul",
      "state": "RS",
      "city": "Braga de Nossa Senhora",
      "neighborhood": "Suélen",
      "description": "Expedita ex aspernatur atque corporis quod quia repudiandae quaerat et.\nDicta explicabo et labore consequatur ut ex et.\nOdit quam aut dolorum.",
      "openHours": 83759,
      "address": "06257 Carvalho Ponte",
      "phone": "(00) 46359-4957",
      "M4T": false,
      "photoUrl": "http://lorempixel.com/640/480/nature",
      "created": "2015-07-13T22:10:07.640Z",
      "updated": "2015-07-20T05:15:44.905Z",
      "lat": -7.3324,
      "lng": -24.3206
    },
    {
      "id": 143,
      "title": "International Solutions Agent",
      "center": "Polo Município de Dalila do Sul",
      "state": "MT",
      "city": "Frederico de Nossa Senhora",
      "neighborhood": "Sílvia",
      "description": "Ipsum molestias ipsam voluptatem cupiditate qui maiores natus dicta.\nRecusandae aut qui quia qui aut odio.\nEst sed eveniet omnis.",
      "openHours": 66399,
      "address": "2388 Carvalho Ponte",
      "phone": "(09) 9994-7940",
      "M4T": true,
      "photoUrl": "http://lorempixel.com/640/480/animals",
      "created": "2015-10-30T16:29:26.126Z",
      "updated": "2015-12-01T03:21:35.506Z",
      "lat": 30.9108,
      "lng": 104.1716
    },
    {
      "id": 144,
      "title": "District Interactions Designer",
      "center": "Polo Elísio do Sul",
      "state": "RJ",
      "city": "Núbia do Descoberto",
      "neighborhood": "Salvador",
      "description": "Accusantium harum sint cum sed molestiae facere voluptas vero aliquam.\nOmnis provident itaque reiciendis voluptatibus.\nNobis non inventore qui consequatur ea error.\nEnim laborum inventore quaerat sunt quae consequuntur sit et praesentium.\nQuia nihil voluptas illum culpa consequuntur vel ut non quibusdam.\nSint eligendi totam cupiditate voluptatem adipisci consequatur magnam fugit repellat.",
      "openHours": 90836,
      "address": "64181 Pedro Ponte",
      "phone": "(34) 72355-0245",
      "M4T": true,
      "photoUrl": "http://lorempixel.com/640/480/people",
      "created": "2015-08-25T13:06:32.462Z",
      "updated": "2015-10-14T04:57:58.018Z",
      "lat": -75.5105,
      "lng": 164.5262
    },
    {
      "id": 145,
      "title": "International Division Associate",
      "center": "Polo Grande Carlos do Norte",
      "state": "PA",
      "city": "Carla do Sul",
      "neighborhood": "Víctor",
      "description": "Praesentium quod quas impedit quia necessitatibus dolorem et temporibus ipsa.\nPerferendis eos eum sunt qui sit.\nDolorem aut ut illo eligendi minus quia fuga voluptatum.",
      "openHours": 59134,
      "address": "51488 Saraiva Avenida",
      "phone": "(33) 1251-8177",
      "M4T": true,
      "photoUrl": "http://lorempixel.com/640/480/nature",
      "created": "2015-06-30T22:22:34.422Z",
      "updated": "2015-11-08T12:00:32.667Z",
      "lat": 9.0253,
      "lng": -33.065
    },
    {
      "id": 146,
      "title": "Regional Markets Consultant",
      "center": "Polo Município de Yango",
      "state": "AL",
      "city": "Grande Júlia do Sul",
      "neighborhood": "Lorena",
      "description": "Tenetur dicta laboriosam quis nam aut mollitia libero.\nAtque dolores rerum accusantium.\nQui sequi dolorem.\nOfficia qui sequi necessitatibus.",
      "openHours": 75273,
      "address": "835 Mércia Rodovia",
      "phone": "+55 (09) 8325-1239",
      "M4T": true,
      "photoUrl": "http://lorempixel.com/640/480/city",
      "created": "2016-01-31T02:13:53.613Z",
      "updated": "2016-02-05T16:48:34.891Z",
      "lat": -1.5807,
      "lng": -5.5838
    },
    {
      "id": 147,
      "title": "Customer Accountability Liason",
      "center": "Polo Joana do Sul",
      "state": "SC",
      "city": "Oliveira do Norte",
      "neighborhood": "Margarida",
      "description": "Sint non sapiente expedita temporibus itaque reprehenderit architecto.\nQui est maiores voluptas minima.\nVoluptatibus sed incidunt reiciendis nisi fuga.\nOdio impedit modi consequatur velit qui odit commodi expedita.\nDolor officiis dolorem porro dolor aliquid est vitae adipisci et.",
      "openHours": 89320,
      "address": "527 Guilherme Travessa",
      "phone": "+55 (51) 9251-0885",
      "M4T": false,
      "photoUrl": "http://lorempixel.com/640/480/transport",
      "created": "2015-09-14T10:50:08.180Z",
      "updated": "2015-09-21T21:09:43.434Z",
      "lat": 83.4084,
      "lng": 130.2156
    },
    {
      "id": 148,
      "title": "Dynamic Tactics Analyst",
      "center": "Polo Elísio do Sul",
      "state": "RJ",
      "city": "Núbia do Descoberto",
      "neighborhood": "Paula",
      "description": "Ea laboriosam at ex rerum sequi.\nEst necessitatibus sint illum exercitationem.\nDolorem eligendi atque modi vero aspernatur.\nIpsum dolor ea ut fugiat quae.",
      "openHours": 27878,
      "address": "26275 Carvalho Rua",
      "phone": "+55 (66) 1892-5940",
      "M4T": false,
      "photoUrl": "http://lorempixel.com/640/480/technics",
      "created": "2015-12-20T10:51:07.848Z",
      "updated": "2015-07-19T09:12:07.392Z",
      "lat": 36.9623,
      "lng": 157.7831
    },
    {
      "id": 149,
      "title": "Product Communications Architect",
      "center": "Polo Hélio do Sul",
      "state": "ES",
      "city": "Município de Alessandra do Sul",
      "neighborhood": "Sílvia",
      "description": "Praesentium est eveniet dolore corporis aut unde optio illo fuga.\nQuae saepe consectetur minus accusantium ut ullam tempora.\nIllum sunt corporis consectetur tempore qui aspernatur sit dolore deleniti.\nDignissimos excepturi quam dolor facilis et.\nVoluptatem consequatur ducimus ipsam et et error iure.",
      "openHours": 76953,
      "address": "0619 Danilo Ponte",
      "phone": "+55 (10) 6478-1372",
      "M4T": false,
      "photoUrl": "http://lorempixel.com/640/480/food",
      "created": "2015-07-27T07:05:50.058Z",
      "updated": "2015-04-12T19:24:11.509Z",
      "lat": 71.7017,
      "lng": -135.8795
    }
  ],
  "centers": [
    {
      "id": 0,
      "title": "Polo Grande Carlos do Norte",
      "state": "PA",
      "city": "Carla do Sul",
      "neighborhoods": [
        "Félix Macedo",
        "Víctor Oliveira",
        "Kléber Barros"
      ],
      "text": "Nihil fugit doloribus molestiae inventore.\nDolore sint eos iusto consequatur assumenda qui enim.\nAut minima nemo animi exercitationem doloribus voluptas quia.\nVelit facere porro et dolor minus.\nAut harum ad et est veritatis qui sed.\nCupiditate perferendis placeat sint ab.\n \rExcepturi sunt qui doloribus eius.\nUllam vel aliquam culpa.\nTemporibus modi amet aut magnam provident laudantium facere.\nConsequatur illum quos fugiat et quo.\nQuod voluptatibus placeat aperiam et aut a iusto.\nRecusandae aut at in amet ut.\n \rDelectus a molestias eaque cum mollitia unde officia.\nIpsa esse perferendis suscipit voluptatem recusandae architecto molestiae ullam eos.\nMinima sed deleniti natus dolore commodi debitis.",
      "photoUrl": "http://lorempixel.com/640/480/city",
      "openHours": 18912,
      "phone": "+55 (29) 4410-3446",
      "homepage": "https://heitor.br",
      "social": "https://antônio.net",
      "created": "2015-06-19T04:15:43.496Z",
      "updated": "2015-05-23T12:36:39.512Z",
      "lat": -60.6515,
      "lng": 102.1165,
      "distance": 145,
      "restaurants": 5
    },
    {
      "id": 1,
      "title": "Polo Grande Sílvia",
      "state": "DF",
      "city": "Velha Larissa do Sul",
      "neighborhoods": [
        "Rafaela Silva",
        "Yuri Macedo",
        "Deneval Batista"
      ],
      "text": "Sequi nisi in.\nDolores illum et occaecati aut perferendis quis officia et.\nTemporibus recusandae unde sit officia eum delectus.\nVoluptas ipsa velit enim.\n \rVoluptas porro nostrum eos ut qui quas voluptatem autem sit.\nUt dolores ab omnis.\nSed et rerum natus velit suscipit.\nNisi labore eligendi quisquam fugiat occaecati consectetur.\nFacilis blanditiis nemo dolorem.\n \rAsperiores qui error quam laborum animi ab esse deserunt.\nAspernatur ducimus est animi odio officiis quis quam sunt.\nCorrupti maxime ea omnis.",
      "photoUrl": "http://lorempixel.com/640/480/technics",
      "openHours": 17215,
      "phone": "(21) 01042-3548",
      "homepage": "https://joão.info",
      "social": "http://félix.biz",
      "created": "2016-02-05T17:52:41.279Z",
      "updated": "2015-05-21T11:30:26.611Z",
      "lat": -64.8895,
      "lng": -84.4033,
      "distance": 3,
      "restaurants": 4
    },
    {
      "id": 2,
      "title": "Polo Grande Isabel do Sul",
      "state": "RS",
      "city": "Braga de Nossa Senhora",
      "neighborhoods": [
        "Fabiano Batista",
        "Fabiano Braga"
      ],
      "text": "Magnam ullam ea.\nDolores repellendus et eligendi rem reiciendis doloremque.\nQuisquam voluptas inventore.\nDucimus quis libero rem voluptatem beatae saepe minus quisquam.\nUt sit in mollitia vero numquam.\nLaboriosam ullam voluptatem hic.\n \rAspernatur in impedit sed voluptas reprehenderit praesentium.\nQuia iste id officia est cum consequatur ratione sapiente non.\nBeatae autem fugit aperiam saepe eum delectus excepturi.\nSint et dolor nihil iure culpa repudiandae.\nAccusamus dolores dolorem qui magnam exercitationem minus necessitatibus.\nAccusamus et dolore ipsum.\n \rVeritatis dolorem non cum consequatur dolores quia reiciendis voluptatem.\nEt ducimus exercitationem repellendus qui.\nVoluptatem aliquam ratione aut velit quo illum.",
      "photoUrl": "http://lorempixel.com/640/480/transport",
      "openHours": 76597,
      "phone": "(06) 6759-5784",
      "homepage": "http://ofélia.br",
      "social": "https://maria.info",
      "created": "2015-05-31T13:46:38.453Z",
      "updated": "2016-01-18T05:35:16.475Z",
      "lat": 78.6621,
      "lng": -12.6732,
      "distance": 274,
      "restaurants": 11
    },
    {
      "id": 3,
      "title": "Polo Joana do Sul",
      "state": "SC",
      "city": "Oliveira do Norte",
      "neighborhoods": [
        "Aline Reis"
      ],
      "text": "Harum unde et ab qui sed et aut.\nAmet necessitatibus quia sit adipisci ut cum assumenda delectus.\nSunt voluptatum ipsa adipisci sed deleniti velit omnis.\nEt sunt eum quisquam consectetur.\nDolores adipisci amet fugiat qui nihil sint.\n \rLaboriosam dolor dicta id voluptas itaque consequatur et.\nEt dolor consequatur sed esse possimus consequatur amet sequi.\nNeque tenetur similique soluta ratione.\nAliquid quas nihil praesentium.\nSed unde aut doloribus est sed nihil.\n \rEt sed consequatur laboriosam accusantium ea sit.\nQuod distinctio beatae iusto aut ipsa sit rem illum.\nVel quia earum.\nAtque ducimus ea et inventore libero distinctio sit iste est.\nSimilique ab exercitationem.\nAutem ea repudiandae impedit iusto.",
      "photoUrl": "http://lorempixel.com/640/480/nightlife",
      "openHours": 49004,
      "phone": "(25) 7034-3759",
      "homepage": "https://antônio.biz",
      "social": "http://yuri.info",
      "created": "2015-11-18T19:08:38.589Z",
      "updated": "2015-04-12T17:38:10.930Z",
      "lat": -88.6066,
      "lng": -94.8391,
      "distance": 130,
      "restaurants": 11
    },
    {
      "id": 4,
      "title": "Polo Velha Dalila do Sul",
      "state": "AP",
      "city": "Grande Ofélia",
      "neighborhoods": [
        "Paulo Moreira"
      ],
      "text": "Debitis et enim distinctio et deserunt cumque eos.\nError atque facere eaque numquam reiciendis.\nLibero sit consequatur sit omnis consequatur ratione ut neque.\nAccusamus ratione aut.\nNeque rerum et ducimus provident autem eaque aliquid.\nSed mollitia eius.\n \rAlias repellendus optio voluptas totam consequatur.\nVero dolorem iste amet in ullam totam omnis neque temporibus.\nCulpa aut et nesciunt ea et atque impedit.\n \rExpedita sit dolorum cupiditate voluptas.\nDoloribus voluptatem veritatis illo ad corporis.\nExplicabo sunt ratione delectus minima dignissimos fugiat laborum in.",
      "photoUrl": "http://lorempixel.com/640/480/business",
      "openHours": 23895,
      "phone": "+55 (18) 4166-0064",
      "homepage": "http://eduardo.name",
      "social": "http://eduardo.net",
      "created": "2015-08-16T09:50:28.984Z",
      "updated": "2015-04-26T05:54:07.455Z",
      "lat": -18.4962,
      "lng": 179.6485,
      "distance": 191,
      "restaurants": 5
    },
    {
      "id": 5,
      "title": "Polo Vila Meire",
      "state": "MA",
      "city": "Nova Marcos do Descoberto",
      "neighborhoods": [
        "Lucas Reis",
        "Sirineu Macedo"
      ],
      "text": "Non sunt et necessitatibus fugiat est quia pariatur reprehenderit dolor.\nNecessitatibus minima illum dignissimos fugiat dolor doloremque non saepe.\nQuia facere soluta voluptatibus.\nNon voluptas dolor quaerat error non quia corrupti.\nCommodi aut debitis nulla cupiditate fugit ut rerum recusandae.\nEa ut amet voluptatem accusamus repudiandae aliquam accusantium.\n \rNemo quisquam ipsam quas quia.\nVoluptatem non dolores dolorem nihil nam ea iure omnis beatae.\nEaque temporibus perferendis in sed quod deserunt.\nIpsam labore rem et facilis placeat voluptatum dolorem occaecati.\n \rMagni nulla eos et doloribus ea non odit nam possimus.\nCommodi sapiente perspiciatis quod consectetur aut consequuntur soluta tenetur.\nUt omnis sit accusamus dolor autem delectus voluptas nihil quos.",
      "photoUrl": "http://lorempixel.com/640/480/animals",
      "openHours": 13148,
      "phone": "(49) 6635-1697",
      "homepage": "https://gúbio.biz",
      "social": "http://morgana.info",
      "created": "2015-09-24T23:21:50.180Z",
      "updated": "2015-12-04T08:21:54.122Z",
      "lat": 40.9502,
      "lng": 44.9484,
      "distance": 229,
      "restaurants": 3
    },
    {
      "id": 6,
      "title": "Polo Grande Danilo do Descoberto",
      "state": "RO",
      "city": "Joana do Descoberto",
      "neighborhoods": [
        "Heitor Macedo",
        "Salvador Xavier"
      ],
      "text": "Voluptatum dignissimos tenetur aut.\nEt fugit aut aut magnam.\nAsperiores nulla ut sit.\nQuia error neque provident sapiente aperiam eos.\nPlaceat laboriosam quas inventore deserunt unde quis eveniet vero.\nTenetur veniam est voluptas.\n \rAperiam blanditiis a quia incidunt.\nNumquam sequi omnis quia non quis fugit voluptatibus est qui.\nNumquam sed minus officiis vel itaque.\nVoluptatibus expedita minus dolor quos.\nPossimus consequuntur qui.\n \rQui minus voluptatum dolor at.\nTotam quia dolores nesciunt alias aut.\nDolorum harum qui assumenda molestiae.",
      "photoUrl": "http://lorempixel.com/640/480/abstract",
      "openHours": 59262,
      "phone": "(13) 3684-2411",
      "homepage": "https://morgana.br",
      "social": "http://meire.br",
      "created": "2015-05-05T19:58:58.233Z",
      "updated": "2016-01-05T05:20:51.040Z",
      "lat": 68.0358,
      "lng": 161.2195,
      "distance": 329,
      "restaurants": 12
    },
    {
      "id": 7,
      "title": "Polo Grande Félix",
      "state": "PR",
      "city": "Pereira de Nossa Senhora",
      "neighborhoods": [
        "João Batista",
        "Feliciano Reis"
      ],
      "text": "Veritatis voluptatem sequi corporis assumenda.\nDelectus voluptatem a porro vel ipsum.\nTempore excepturi eveniet.\nVoluptas beatae nihil.\n \rQuo occaecati aut eum.\nMolestiae nam magnam assumenda corporis est et.\nEt numquam sint velit dolores repellendus sit delectus temporibus.\nSint porro et modi.\n \rPraesentium dolor culpa minima fugiat enim.\nEt nihil ullam.\nQui dolore cumque qui repellendus voluptas esse consequatur.\nCommodi cum reprehenderit deleniti velit harum quaerat.\nNihil laboriosam placeat sunt consequuntur porro ratione quos ullam.",
      "photoUrl": "http://lorempixel.com/640/480/sports",
      "openHours": 15341,
      "phone": "(24) 51118-6808",
      "homepage": "https://césar.net",
      "social": "https://yuri.org",
      "created": "2015-09-23T16:13:08.038Z",
      "updated": "2015-07-10T16:17:03.752Z",
      "lat": -55.6127,
      "lng": 1.0992,
      "distance": 160,
      "restaurants": 2
    },
    {
      "id": 8,
      "title": "Polo Martins de Nossa Senhora",
      "state": "AP",
      "city": "Velha Marli do Norte",
      "neighborhoods": [
        "Lucas Reis",
        "Mércia Costa"
      ],
      "text": "Qui est ex facere.\nUt ipsam maiores ut impedit voluptatem velit deserunt nisi excepturi.\nDeserunt aperiam velit quae assumenda molestiae.\n \rAlias quo non eum.\nNecessitatibus error minus maiores.\nSed placeat delectus adipisci doloribus qui eaque unde.\n \rVero blanditiis fugiat qui commodi.\nVoluptatem aspernatur nesciunt facere.\nVoluptatem saepe vero.",
      "photoUrl": "http://lorempixel.com/640/480/business",
      "openHours": 26376,
      "phone": "(44) 14166-3291",
      "homepage": "http://carla.biz",
      "social": "http://deneval.net",
      "created": "2015-12-16T19:10:23.272Z",
      "updated": "2015-03-18T03:41:16.016Z",
      "lat": -51.4122,
      "lng": 147.8798,
      "distance": 21,
      "restaurants": 11
    },
    {
      "id": 9,
      "title": "Polo Sara do Norte",
      "state": "DF",
      "city": "Santos do Descoberto",
      "neighborhoods": [
        "Ígor Braga"
      ],
      "text": "Suscipit vero doloribus et quasi.\nVeniam illum facilis corrupti autem excepturi unde voluptatem hic quia.\nSapiente odio debitis quod in ut mollitia.\n \rDelectus ad nisi quia debitis amet.\nMaxime autem rerum ipsam rem et voluptatem.\nQui ut id itaque et tempora laboriosam qui qui.\nSunt omnis recusandae est.\nOfficiis quis minus vel repudiandae voluptatum.\nDolor voluptatem laborum eius in ut consectetur.\n \rQuos laborum inventore et et at dolores.\nVelit voluptas soluta nihil.\nOfficiis delectus laudantium est excepturi.\nVoluptatem et modi laborum ducimus architecto ipsam.",
      "photoUrl": "http://lorempixel.com/640/480/cats",
      "openHours": 58855,
      "phone": "(92) 4106-2004",
      "homepage": "http://fabrício.org",
      "social": "http://warley.info",
      "created": "2015-08-01T04:04:22.509Z",
      "updated": "2015-07-23T09:36:32.307Z",
      "lat": 84.4089,
      "lng": 31.224,
      "distance": 236,
      "restaurants": 6
    },
    {
      "id": 10,
      "title": "Polo Município de Yango",
      "state": "AL",
      "city": "Grande Júlia do Sul",
      "neighborhoods": [
        "Aline Souza",
        "Elísio Santos"
      ],
      "text": "Et neque possimus et voluptas facilis officia.\nRatione exercitationem beatae.\nEst animi ipsam numquam quia saepe et atque aut.\n \rAutem accusamus voluptatum est debitis facilis accusantium dolor aut.\nRatione animi voluptatem eligendi eos facilis sequi.\nSunt harum nisi quia dolore et aut.\nSit enim ipsa aut dolores.\nEa beatae sunt non ipsam occaecati sint aut recusandae impedit.\n \rNihil ipsum aliquid optio.\nLabore sit odit neque reprehenderit vitae dolores laborum fuga sit.\nEligendi deleniti omnis aliquid omnis.\nAb architecto beatae rem et eos.\nAlias fugit amet voluptatibus eum laudantium tenetur dolores.\nMollitia pariatur dolorem rerum praesentium dolor voluptates animi excepturi.",
      "photoUrl": "http://lorempixel.com/640/480/sports",
      "openHours": 17580,
      "phone": "+55 (36) 4243-6793",
      "homepage": "https://kléber.net",
      "social": "http://yuri.info",
      "created": "2015-09-02T11:23:56.150Z",
      "updated": "2015-06-01T23:05:55.464Z",
      "lat": -29.0404,
      "lng": 48.7544,
      "distance": 215,
      "restaurants": 9
    },
    {
      "id": 11,
      "title": "Polo Grande Rafaela",
      "state": "RS",
      "city": "Vila Joana",
      "neighborhoods": [
        "Natália Souza",
        "Fabrícia Carvalho",
        "Márcia Batista"
      ],
      "text": "Quo iste et sed ut.\nVel qui dolores.\nNon ducimus similique est cumque autem earum.\nVelit ducimus odit ut.\n \rQuam nihil voluptatem.\nFugiat culpa quidem voluptas reiciendis corporis.\nOmnis iste dolor dolorem ut occaecati et.\n \rNon omnis placeat et omnis accusamus velit.\nProvident rem voluptas et ducimus maxime.\nQuod aut aut in libero sapiente.\nEst incidunt at eum nihil ea omnis minima reiciendis.",
      "photoUrl": "http://lorempixel.com/640/480/animals",
      "openHours": 11338,
      "phone": "(59) 44409-5069",
      "homepage": "http://larissa.net",
      "social": "http://natália.info",
      "created": "2015-05-30T15:05:42.195Z",
      "updated": "2015-04-20T08:41:24.486Z",
      "lat": -67.8384,
      "lng": 35.73,
      "distance": 202,
      "restaurants": 8
    },
    {
      "id": 12,
      "title": "Polo Município de Pablo",
      "state": "BA",
      "city": "Velha Heitor",
      "neighborhoods": [
        "Rafaela Souza",
        "João Moreira",
        "Washington Martins"
      ],
      "text": "Dolores inventore ut cumque laudantium sit quas a sequi.\nAccusamus minus dolores qui qui quia voluptatibus iste.\nExcepturi repellendus quia optio cupiditate illum tempore pariatur.\nEst vitae ullam ea quod ut et velit tempora.\n \rLibero vitae iure.\nDicta qui exercitationem.\nIncidunt recusandae natus impedit omnis velit architecto et.\n \rCum dolore ab voluptate iure quis adipisci et blanditiis voluptatem.\nOdit enim eveniet dolores ipsum eius et ratione consequatur.\nUt dolor pariatur voluptates molestias officiis similique omnis dolores.\nMinus consequuntur voluptas nihil sint molestiae dolorum numquam.\nSimilique nihil aspernatur maxime architecto aut ut laboriosam non consequatur.\nDeserunt velit quas.",
      "photoUrl": "http://lorempixel.com/640/480/fashion",
      "openHours": 36649,
      "phone": "+55 (78) 0944-8508",
      "homepage": "https://hugo.com",
      "social": "https://sílvia.net",
      "created": "2015-06-14T00:25:06.067Z",
      "updated": "2016-02-24T17:43:57.033Z",
      "lat": -63.2969,
      "lng": -73.8063,
      "distance": 81,
      "restaurants": 10
    },
    {
      "id": 13,
      "title": "Polo Vila Danilo",
      "state": "CE",
      "city": "Pereira de Nossa Senhora",
      "neighborhoods": [
        "Félix Souza",
        "Nataniel Souza",
        "Alessandra Oliveira"
      ],
      "text": "Non accusantium voluptatem earum.\nVoluptatem tempora praesentium et ab aut.\nVoluptas fuga velit earum qui quibusdam ut ipsa dolor iure.\n \rEx dolor est.\nVoluptatem aliquam assumenda quia neque quas facere dolores.\nAut nihil impedit quaerat.\nQui eius impedit aut praesentium omnis optio.\nAsperiores blanditiis quo.\nAut necessitatibus vero dolore rem voluptatem quia iusto.\n \rEos odit ut pariatur et asperiores.\nTempore iste rerum dolore velit neque odio.\nIure illum qui rerum et autem quo maiores.\nHarum et molestiae eum et reiciendis soluta sed iure.",
      "photoUrl": "http://lorempixel.com/640/480/people",
      "openHours": 41294,
      "phone": "+55 (33) 4067-1128",
      "homepage": "https://célia.org",
      "social": "http://márcia.net",
      "created": "2016-03-04T12:53:07.388Z",
      "updated": "2015-10-27T15:13:44.377Z",
      "lat": 64.251,
      "lng": 34.8314,
      "distance": 322,
      "restaurants": 3
    },
    {
      "id": 14,
      "title": "Polo Elísio do Sul",
      "state": "RJ",
      "city": "Núbia do Descoberto",
      "neighborhoods": [
        "Sra. Gúbio Moreira"
      ],
      "text": "Dicta est ex voluptas consectetur est voluptas numquam.\nSed consectetur vero modi aut animi laborum labore.\nDolor voluptatum sit hic laborum eligendi autem vitae.\nReprehenderit veritatis eum necessitatibus sed.\nEnim earum laborum ratione quod quo necessitatibus pariatur.\n \rDebitis quas ipsum numquam fugit repellendus dicta cupiditate enim eos.\nHarum rerum in tempora quasi sit molestiae.\nDolore dolorem a praesentium error animi est voluptatibus.\nVoluptas totam dolores omnis ut iste commodi fugiat aut nisi.\n \rAccusamus sunt error doloremque veniam sapiente voluptatum rerum molestias sequi.\nIllum aspernatur eius molestias nam.\nTemporibus amet quia suscipit a.\nEnim et consequuntur vel dolor blanditiis natus aut voluptas sequi.\nTotam aut tempora ad qui vitae.\nNihil sint quia consequatur qui assumenda sed.",
      "photoUrl": "http://lorempixel.com/640/480/city",
      "openHours": 92352,
      "phone": "(22) 7747-4057",
      "homepage": "https://suélen.net",
      "social": "http://norberto.biz",
      "created": "2015-11-05T23:25:44.952Z",
      "updated": "2016-01-22T20:19:51.259Z",
      "lat": 22.1926,
      "lng": -61.9693,
      "distance": 53,
      "restaurants": 2
    },
    {
      "id": 15,
      "title": "Polo César de Nossa Senhora",
      "state": "MS",
      "city": "Município de Fabiano",
      "neighborhoods": [
        "Júlio César Nogueira",
        "Lucas Santos"
      ],
      "text": "Placeat in qui est ut dolores.\nDicta dolorem enim vero quia.\nPorro consectetur aut sint omnis sunt voluptatem quos alias.\nQuis eius occaecati alias id laborum.\nEnim praesentium et.\nSimilique non id.\n \rVeniam eaque soluta.\nLaudantium error commodi molestiae.\nEum delectus laboriosam molestiae nesciunt cum.\nEt non eligendi.\nBeatae consequuntur sapiente velit vel est rerum doloribus quaerat aut.\nNeque dolor at vel quis.\n \rEst tenetur voluptate commodi eum fugit.\nCupiditate consectetur corrupti voluptatum.\nReiciendis quod harum quae itaque non corrupti natus earum.\nNobis nesciunt atque.",
      "photoUrl": "http://lorempixel.com/640/480/sports",
      "openHours": 18765,
      "phone": "+55 (67) 6006-2915",
      "homepage": "https://carlos.br",
      "social": "https://janaína.info",
      "created": "2016-02-28T19:09:07.303Z",
      "updated": "2015-08-19T03:59:10.016Z",
      "lat": 24.7065,
      "lng": 13.3398,
      "distance": 130,
      "restaurants": 10
    },
    {
      "id": 16,
      "title": "Polo Grande Célia do Descoberto",
      "state": "PB",
      "city": "Melo de Nossa Senhora",
      "neighborhoods": [
        "Lorena Santos",
        "Isabela Moreira",
        "Gúbio Franco"
      ],
      "text": "Nesciunt qui voluptatem.\nUt rerum et officia quis nihil atque beatae unde eius.\nQuia sed consequuntur sunt.\n \rVoluptatibus delectus vel quaerat qui molestiae odit officia excepturi.\nQuia sunt quod est vel eius commodi quia et ut.\nNam eum voluptas et aspernatur in eum.\n \rCum aut vel dolore reprehenderit ex accusantium.\nQuisquam ex assumenda voluptate ad sit et dolor quis.\nNecessitatibus tempora qui ab aut dolorem voluptas velit consectetur ea.\nEt debitis ut facere.\nNostrum qui debitis saepe sed consequatur voluptate officia eligendi id.",
      "photoUrl": "http://lorempixel.com/640/480/food",
      "openHours": 49376,
      "phone": "(56) 66972-4543",
      "homepage": "http://yago.br",
      "social": "https://márcia.net",
      "created": "2015-11-17T00:03:25.012Z",
      "updated": "2015-10-19T02:49:21.856Z",
      "lat": 37.5487,
      "lng": -118.2407,
      "distance": 321,
      "restaurants": 14
    },
    {
      "id": 17,
      "title": "Polo Velha Núbia do Descoberto",
      "state": "BA",
      "city": "Grande Deneval do Norte",
      "neighborhoods": [
        "Carlos Saraiva",
        "Isabel Moraes"
      ],
      "text": "Natus illo consectetur consequatur accusamus doloribus itaque odio debitis.\nSint culpa et et sit provident blanditiis doloremque.\nAut sunt error porro officiis voluptate dolorum qui sequi.\n \rSit vitae voluptas omnis et eos saepe et.\nCulpa fuga sit voluptas eum modi voluptatum ea.\nUllam consectetur dolorum.\nAut libero laboriosam vitae provident autem facilis.\nEt tempore eligendi nulla et est praesentium enim exercitationem.\nAliquam aut minima aut alias quasi ea dignissimos et quam.\n \rExcepturi et et minima et ad animi qui.\nVoluptas libero accusantium non qui suscipit ea.\nHic non quam ut provident.\nUnde quis voluptas cupiditate natus veritatis cum nostrum eligendi ex.\nQuia rerum mollitia repudiandae.\nCommodi magni harum alias.",
      "photoUrl": "http://lorempixel.com/640/480/abstract",
      "openHours": 87310,
      "phone": "(68) 4466-5946",
      "homepage": "https://esther.name",
      "social": "http://esther.name",
      "created": "2015-07-19T08:15:37.682Z",
      "updated": "2015-09-14T22:50:39.437Z",
      "lat": -13.5231,
      "lng": 73.2632,
      "distance": 107,
      "restaurants": 5
    },
    {
      "id": 18,
      "title": "Polo Carvalho do Sul",
      "state": "ES",
      "city": "Silva do Norte",
      "neighborhoods": [
        "Natália Reis",
        "João Martins"
      ],
      "text": "Praesentium reiciendis et at.\nIn non et aliquam quis eum quasi enim.\nAssumenda temporibus commodi qui eius.\n \rBeatae fuga qui blanditiis rem nobis.\nOmnis labore ullam aliquam.\nAutem dolor vel earum est et.\n \rAt beatae nobis.\nDeleniti distinctio ea dolor ut.\nEt voluptatem perferendis vel et unde ad eveniet molestias eaque.\nIure nemo sint omnis necessitatibus.\nId praesentium sit illum autem adipisci odio fuga velit eos.\nEt quaerat quam.",
      "photoUrl": "http://lorempixel.com/640/480/people",
      "openHours": 56868,
      "phone": "(37) 61827-4366",
      "homepage": "http://eduarda.com",
      "social": "https://breno.biz",
      "created": "2015-10-11T06:35:06.786Z",
      "updated": "2015-12-15T13:55:59.839Z",
      "lat": -0.4767,
      "lng": 55.9997,
      "distance": 121,
      "restaurants": 9
    },
    {
      "id": 19,
      "title": "Polo Nova Norberto do Descoberto",
      "state": "RN",
      "city": "Grande Célia do Sul",
      "neighborhoods": [
        "Heitor Martins Sra."
      ],
      "text": "Dolores placeat sed voluptas aliquam.\nEum dolorem sunt eaque atque perferendis tempore aut occaecati at.\nMolestiae at eos eius voluptatem amet.\nAliquam dolorum commodi modi omnis.\n \rQuis est perspiciatis facere aut esse.\nSapiente necessitatibus voluptatem illo numquam.\nConsequuntur aut est.\nIn dolore tempore dolor numquam repellendus unde qui sunt vero.\nQuis reiciendis voluptas reprehenderit.\n \rDolor et totam aliquam aspernatur illo aut magnam.\nOmnis vero in voluptatem at aut optio accusamus veritatis dignissimos.\nQuo veniam laudantium autem culpa eos consequatur nesciunt quia consequatur.\nSuscipit ipsa voluptatibus vitae.",
      "photoUrl": "http://lorempixel.com/640/480/city",
      "openHours": 99650,
      "phone": "(29) 99608-1516",
      "homepage": "https://félix.com",
      "social": "http://esther.name",
      "created": "2016-01-22T09:34:37.451Z",
      "updated": "2015-05-25T03:39:48.203Z",
      "lat": 39.6194,
      "lng": -151.1703,
      "distance": 15,
      "restaurants": 1
    },
    {
      "id": 20,
      "title": "Polo Município de Carlos do Sul",
      "state": "RJ",
      "city": "Frederico do Sul",
      "neighborhoods": [
        "Paulo Melo",
        "Guilherme Melo"
      ],
      "text": "Omnis architecto maxime.\nProvident assumenda neque.\nAccusamus nisi nemo quia inventore est voluptatem deserunt ab qui.\nQuasi libero dolorum id quaerat numquam officia quo.\n \rEst assumenda ut qui magnam cumque aut provident.\nConsequatur dolores rerum voluptas sunt ea saepe.\nVoluptas modi minus.\nSed cum modi minima at et consequatur.\n \rVelit et magnam ea suscipit fugiat odit nulla.\nNumquam qui velit optio.\nAut similique qui dignissimos sequi.",
      "photoUrl": "http://lorempixel.com/640/480/business",
      "openHours": 45044,
      "phone": "+55 (46) 5411-0554",
      "homepage": "http://júlia.name",
      "social": "http://silas.com",
      "created": "2015-07-13T17:26:37.566Z",
      "updated": "2015-05-01T08:13:47.914Z",
      "lat": -15.58,
      "lng": 132.3998,
      "distance": 130,
      "restaurants": 10
    },
    {
      "id": 21,
      "title": "Polo Grande Felícia",
      "state": "RO",
      "city": "Grande Heitor do Sul",
      "neighborhoods": [
        "Márcia Barros",
        "Rafael Braga",
        "Maria Oliveira"
      ],
      "text": "Voluptatem odio fugiat quae illo.\nVelit id est fugit aut consectetur.\nPariatur cumque iste tempora cum sequi vel.\n \rOdio dolore cupiditate et minima iusto est veniam aut.\nQui ratione dolores sunt animi exercitationem consequatur omnis id aut.\nVero nostrum corrupti dolores reprehenderit.\nVoluptatem laborum eum modi atque.\nEnim enim in dolorem sed reiciendis sit.\n \rEt incidunt vel maiores nihil pariatur.\nCulpa adipisci asperiores eum autem et similique natus minima deserunt.\nQuidem cum voluptas necessitatibus.\nAnimi qui quia tempora libero eligendi.",
      "photoUrl": "http://lorempixel.com/640/480/animals",
      "openHours": 86029,
      "phone": "(96) 08798-9988",
      "homepage": "http://ofélia.br",
      "social": "https://ofélia.info",
      "created": "2015-04-06T06:41:24.010Z",
      "updated": "2016-03-01T16:54:25.751Z",
      "lat": 51.5286,
      "lng": 96.0792,
      "distance": 220,
      "restaurants": 6
    },
    {
      "id": 22,
      "title": "Polo Ladislau do Norte",
      "state": "ES",
      "city": "Martins de Nossa Senhora",
      "neighborhoods": [
        "Dr. César Reis",
        "Frederico Franco Srta."
      ],
      "text": "Sed quos fuga aut soluta qui non quae provident doloribus.\nOptio qui sint.\nExpedita tenetur omnis.\nDeserunt ipsum minus recusandae distinctio.\n \rSunt ut ex ad in maxime non quo cum voluptas.\nNon rerum exercitationem ut totam.\nEt quia quia necessitatibus quidem laborum.\n \rNihil provident sunt cum et.\nLaboriosam possimus occaecati quasi animi minus consectetur ea reprehenderit.\nAperiam est magnam incidunt.\nConsequatur possimus officia facilis at quis aliquam quos.\nEos voluptatem eligendi ut.\nEsse eum sed.",
      "photoUrl": "http://lorempixel.com/640/480/nature",
      "openHours": 5031,
      "phone": "+55 (98) 6399-4110",
      "homepage": "https://sílvia.br",
      "social": "https://hélio.com",
      "created": "2016-02-23T03:19:01.396Z",
      "updated": "2015-12-09T11:47:35.638Z",
      "lat": 23.3623,
      "lng": 55.4084,
      "distance": 347,
      "restaurants": 6
    },
    {
      "id": 23,
      "title": "Polo Moraes do Norte",
      "state": "ES",
      "city": "Batista do Norte",
      "neighborhoods": [
        "Pablo Martins"
      ],
      "text": "Officia nihil aut minima consequatur fugiat nemo aperiam blanditiis.\nAdipisci animi nostrum temporibus quo.\nA et impedit nobis odio voluptatibus sint reprehenderit.\nQuo ex voluptas necessitatibus sunt eius quasi.\nSequi et eos ad id.\n \rQuia laborum vitae.\nAut quisquam voluptatem.\nQuo quis architecto dolorum nobis nemo aut aliquam.\nEt odio aliquam.\nPariatur optio fugiat architecto facere adipisci facilis.\n \rNobis numquam et qui nemo consequatur hic sit.\nMagni sed voluptas in commodi.\nDolore enim porro asperiores numquam.\nMagnam reiciendis maiores omnis sint est ullam ratione.\nOmnis pariatur rerum doloremque accusantium ad harum.\nAperiam quod distinctio ut.",
      "photoUrl": "http://lorempixel.com/640/480/cats",
      "openHours": 73616,
      "phone": "(88) 8749-2781",
      "homepage": "http://marli.biz",
      "social": "http://mércia.org",
      "created": "2015-10-14T12:31:57.463Z",
      "updated": "2016-01-14T12:49:50.587Z",
      "lat": 81.4625,
      "lng": -152.3517,
      "distance": 53,
      "restaurants": 5
    },
    {
      "id": 24,
      "title": "Polo Marcela do Sul",
      "state": "RS",
      "city": "Silva de Nossa Senhora",
      "neighborhoods": [
        "João Carvalho"
      ],
      "text": "Modi est magnam non maxime.\nOfficiis alias fuga voluptatem sed rerum itaque.\nPerferendis dolorum quibusdam magni autem et libero tenetur harum.\nAutem beatae et perferendis ipsam.\n \rId quas non voluptatem hic vitae.\nEt dolor possimus corrupti id assumenda ea labore.\nProvident nesciunt qui explicabo maxime unde voluptas aliquam rem enim.\n \rSoluta delectus officia.\nDolores nihil quibusdam non architecto quia.\nInventore maiores quo rerum expedita et.\nBeatae ullam repudiandae in tempora sit sed nihil.",
      "photoUrl": "http://lorempixel.com/640/480/animals",
      "openHours": 55152,
      "phone": "+55 (42) 6226-2687",
      "homepage": "http://joão.org",
      "social": "https://morgana.org",
      "created": "2015-07-16T16:02:22.427Z",
      "updated": "2015-11-07T03:50:24.841Z",
      "lat": -64.5034,
      "lng": -20.8498,
      "distance": 12,
      "restaurants": 9
    },
    {
      "id": 25,
      "title": "Polo Hélio do Sul",
      "state": "ES",
      "city": "Município de Alessandra do Sul",
      "neighborhoods": [
        "Paula Santos Sra."
      ],
      "text": "Fugit eveniet voluptates.\nDeleniti quia harum debitis ea amet.\nEst veritatis corrupti accusantium optio porro ipsa numquam.\nHarum qui aut iusto non tempore.\nAspernatur voluptas culpa neque rerum eius.\nNon occaecati atque exercitationem asperiores ipsam deserunt sunt.\n \rEst enim sed eaque dolor ipsum doloremque rerum excepturi eveniet.\nCupiditate quasi debitis.\nVoluptatem voluptas nobis blanditiis beatae voluptates debitis quos.\nEt necessitatibus autem commodi est cumque.\nAd dolore voluptate laudantium ut ut molestiae perspiciatis.\n \rFacere doloribus aut tempore et magni rerum amet harum exercitationem.\nQuisquam ipsum accusantium sequi soluta odio aut fugit quis.\nEt occaecati ut nisi optio qui voluptatum reprehenderit.\nRerum modi nihil sit ea beatae laboriosam voluptatum.",
      "photoUrl": "http://lorempixel.com/640/480/business",
      "openHours": 34140,
      "phone": "(91) 5445-5110",
      "homepage": "http://frederico.biz",
      "social": "http://marcela.br",
      "created": "2015-12-12T03:14:47.906Z",
      "updated": "2015-10-10T03:47:17.130Z",
      "lat": 36.9121,
      "lng": -157.9452,
      "distance": 335,
      "restaurants": 4
    },
    {
      "id": 26,
      "title": "Polo Município de Carlos do Sul",
      "state": "SP",
      "city": "Nova Alessandro",
      "neighborhoods": [
        "Feliciano Reis",
        "Marcela Franco",
        "Lucas Macedo",
        "Lorena Macedo"
      ],
      "text": "Eveniet cum porro non sit qui sint nemo qui iste.\nReprehenderit iure ipsum aliquam libero et nostrum porro.\nQui tempore veniam cum est distinctio.\nVel numquam eum reiciendis dolorem labore et illo consequatur accusamus.\n \rQuia dignissimos aut eum similique deleniti consectetur dicta repudiandae.\nIllo quidem tempora veniam placeat qui qui.\nMaxime quis aut velit.\nVoluptatibus sit consequatur illum rerum placeat porro rem assumenda non.\nEt doloremque in deserunt.\n \rDolorem quam et vitae sit at assumenda.\nNihil eius quaerat est.\nDeserunt itaque voluptate ea porro labore.\nEarum minus cupiditate.",
      "photoUrl": "http://lorempixel.com/640/480/food",
      "openHours": 91752,
      "phone": "(81) 15176-6273",
      "homepage": "http://fabrícia.br",
      "social": "http://fábio.name",
      "created": "2015-12-18T12:52:46.732Z",
      "updated": "2015-12-03T12:36:01.008Z",
      "lat": 57.089,
      "lng": 63.9068,
      "distance": 152,
      "restaurants": 11
    },
    {
      "id": 27,
      "title": "Polo Município de Dalila do Sul",
      "state": "MT",
      "city": "Frederico de Nossa Senhora",
      "neighborhoods": [
        "Sra. Esther Xavier",
        "Silas Martins Srta.",
        "Ofélia Silva Srta.",
        "Salvador Albuquerque"
      ],
      "text": "Ab consequatur eos architecto vel eveniet molestiae.\nVelit ratione doloremque laboriosam et vel ullam.\nMolestiae veritatis sed debitis.\nMinima sed non adipisci nihil debitis cum omnis hic ipsum.\nDistinctio similique dolorem quia enim beatae debitis accusamus qui sapiente.\nNam aut est tempora eius voluptas a dicta minus.\n \rAperiam quo ipsam voluptate.\nAlias aut qui minima ullam delectus suscipit non.\nAliquam ea est et quaerat voluptatem tempora beatae.\nRerum neque vel rerum doloribus corporis distinctio qui.\n \rVoluptatum quia voluptas at quia incidunt.\nRepellendus ipsa aut qui minus quidem quisquam tenetur labore qui.\nMinus asperiores expedita deserunt voluptas et eligendi velit.\nLabore tenetur libero porro debitis.",
      "photoUrl": "http://lorempixel.com/640/480/nightlife",
      "openHours": 48174,
      "phone": "(40) 4818-8148",
      "homepage": "https://breno.name",
      "social": "http://júlio césar.org",
      "created": "2015-08-28T02:23:12.971Z",
      "updated": "2016-01-21T07:04:29.361Z",
      "lat": 58.0358,
      "lng": -103.1668,
      "distance": 10,
      "restaurants": 4
    },
    {
      "id": 28,
      "title": "Polo Sirineu do Norte",
      "state": "GO",
      "city": "Vila Pablo do Norte",
      "neighborhoods": [
        "Víctor Reis"
      ],
      "text": "Inventore dignissimos nihil.\nDeleniti eaque delectus aut.\nPossimus optio ullam libero quia accusamus ut.\nAliquid magnam quo assumenda.\nAb accusamus et voluptatem sequi animi fuga architecto nihil.\n \rMinus ab assumenda consequatur at accusamus dolorum sint voluptatum autem.\nVoluptate eaque veniam voluptatem.\nSed quisquam occaecati dolores autem saepe quos impedit et.\nDolores facere nihil aut voluptatem aspernatur.\nBlanditiis animi explicabo velit.\n \rUt et recusandae.\nAut sint et deleniti aut dolor rerum.\nArchitecto tempore rerum et nihil tempora commodi.",
      "photoUrl": "http://lorempixel.com/640/480/abstract",
      "openHours": 41469,
      "phone": "+55 (06) 8711-9590",
      "homepage": "https://joana.org",
      "social": "https://pablo.info",
      "created": "2015-04-10T19:10:52.887Z",
      "updated": "2015-11-02T11:52:45.449Z",
      "lat": 32.6303,
      "lng": -15.6073,
      "distance": 42,
      "restaurants": 14
    },
    {
      "id": 29,
      "title": "Polo Meire do Norte",
      "state": "RJ",
      "city": "Raul do Descoberto",
      "neighborhoods": [
        "Alessandra Nogueira",
        "Eduardo Reis"
      ],
      "text": "Alias et vitae natus unde.\nVoluptatibus laborum nihil rerum eius saepe est officia quod.\nConsectetur eum distinctio.\nQuae voluptatibus nemo animi.\n \rIpsa porro eius rerum reprehenderit.\nMollitia placeat autem doloremque enim minima.\nAut et minima deserunt ex autem.\nQuae inventore quam molestiae error consequatur et.\nUt qui quis magni cumque et.\nOfficia omnis et.\n \rRepudiandae aut ut eveniet cum natus enim voluptatem.\nIllo vel doloribus eius.\nRatione rerum placeat aliquid reiciendis officiis quia doloribus eum sit.\nFacilis ea id.\nLibero pariatur veniam ratione reiciendis at tenetur.\nLibero optio accusantium repudiandae omnis veritatis harum.",
      "photoUrl": "http://lorempixel.com/640/480/nature",
      "openHours": 49169,
      "phone": "+55 (99) 2513-9706",
      "homepage": "http://joana.name",
      "social": "https://lucas.biz",
      "created": "2015-04-07T13:26:42.529Z",
      "updated": "2015-07-03T09:07:57.658Z",
      "lat": 60.7053,
      "lng": -17.49,
      "distance": 267,
      "restaurants": 10
    }
  ],
  "news": [
    {
      "id": 0,
      "center": "Polo Município de Yango",
      "title": "Internal Tactics Coordinator",
      "caption": "Harum dolorem rerum facilis et ipsum et porro.",
      "text": "Autem praesentium error rerum officiis recusandae.\nAtque est sed repellendus dolores non id totam autem officiis.\nVelit ipsam maxime sit quo quibusdam cumque dolore.\n \rExcepturi necessitatibus et mollitia nihil quo.\nVelit autem rerum molestiae dolor porro expedita odit eum.\nQuidem repellat et.\nNostrum natus tempora.\nSunt qui vel quia magni ipsam.\nEsse iste voluptas saepe totam eos expedita tenetur voluptatem enim.\n \rQuidem quisquam est ipsam veritatis ex eaque vel.\nRerum voluptates perspiciatis aut ipsam.\nOfficiis dolorem ex nemo repudiandae recusandae maxime voluptas sunt.\nIpsam eveniet necessitatibus asperiores molestiae rerum veniam.",
      "photoUrl": "http://lorempixel.com/640/480/transport",
      "created": "2015-08-05T18:33:43.005Z",
      "updated": "2015-08-13T07:32:02.225Z",
      "event": false
    },
    {
      "id": 1,
      "center": "Polo Município de Yango",
      "title": "District Markets Coordinator",
      "caption": "Cupiditate aut sit.",
      "text": "Repellendus libero unde error.\nExpedita laboriosam harum totam aperiam labore maxime.\nDolores sit est unde dolorum adipisci autem.\nIpsam maxime qui qui similique.\nVoluptatem illum corporis molestiae dolorum.\nConsequatur voluptatem hic veritatis nesciunt accusamus placeat id vel.\n \rMolestiae sint qui voluptatem eaque eum similique necessitatibus quas.\nAliquid id quam suscipit hic harum voluptatibus sequi a.\nExcepturi voluptas aut quod quia ut nihil at dolorem.\nPlaceat molestiae explicabo.\nNeque qui et fuga nobis.\nTempore voluptas est ut placeat veritatis.\n \rNobis reiciendis rerum facilis rerum vel ea voluptatum est veritatis.\nUt officiis maiores odit saepe aut et.\nQuia maxime eum suscipit fugit laudantium hic.\nSint delectus officiis eos eius ducimus dolores velit sed aut.",
      "photoUrl": "http://lorempixel.com/640/480/people",
      "created": "2015-12-07T18:45:52.334Z",
      "updated": "2016-01-18T09:00:10.452Z",
      "event": true
    },
    {
      "id": 2,
      "center": "Polo Meire do Norte",
      "title": "Customer Interactions Strategist",
      "caption": "Quia quia quia quo voluptatum quidem.",
      "text": "Temporibus natus alias fugiat illum sit amet qui.\nMinima non illo nulla dicta.\nEst natus consequatur vero ullam esse et porro non.\nAperiam maiores suscipit cumque quia dolorem vitae.\n \rBeatae voluptatibus aliquam iusto quia.\nQuis nam totam libero aut eum nesciunt aliquam dolore consequuntur.\nInventore repudiandae quia laboriosam voluptas aut sit facere saepe.\n \rAccusantium autem quia voluptate blanditiis.\nAccusamus recusandae soluta odit qui consequatur sed ad.\nExplicabo et sed praesentium dolore est est commodi tenetur.\nOccaecati provident soluta id ut repudiandae mollitia quisquam.\nAspernatur sint et vero molestias quo iure.",
      "photoUrl": "http://lorempixel.com/640/480/nature",
      "created": "2015-11-25T03:31:37.700Z",
      "updated": "2016-01-02T04:43:54.771Z",
      "event": false
    },
    {
      "id": 3,
      "center": "Polo Município de Dalila do Sul",
      "title": "District Interactions Planner",
      "caption": "Quasi aperiam ut blanditiis dicta autem ut.",
      "text": "Rerum voluptas nostrum necessitatibus.\nConsequuntur et excepturi accusamus.\nEos aut est deleniti ut minus quas dolores consequatur.\nQuia et et.\nMagnam perferendis ipsa eum iusto corporis error.\nVoluptas amet quaerat.\n \rSunt ut repellat magnam porro ut omnis corporis id perferendis.\nEt dolores possimus.\nCommodi est omnis nostrum dolores placeat tempore molestias tempora.\nAutem temporibus error.\nEt eum magnam debitis quis non molestiae ut.\n \rIusto nihil voluptates voluptate reprehenderit sit mollitia deserunt iste.\nAmet est facere iste.\nNeque deserunt ex.\nQuia dolorem aliquam error eveniet vel minima qui debitis.",
      "photoUrl": "http://lorempixel.com/640/480/nature",
      "created": "2015-09-07T11:25:09.708Z",
      "updated": "2015-12-23T16:54:23.718Z",
      "event": true
    },
    {
      "id": 4,
      "center": "Polo Ladislau do Norte",
      "title": "Global Solutions Producer",
      "caption": "Dicta ratione minima dolorem possimus odit voluptatum rerum nostrum porro.",
      "text": "Aut et et est.\nQuo laborum magni iusto.\nAspernatur architecto sed esse provident omnis molestias id.\n \rAut non repellendus minima reiciendis accusamus atque nihil.\nNesciunt est quae.\nEst mollitia dolores molestias sapiente.\nAperiam ullam architecto laborum alias quod dolor.\nQui eveniet sint.\nCulpa et porro voluptates veniam eum reprehenderit cumque corrupti.\n \rQuia dolor aut incidunt deserunt rerum optio et.\nDoloribus assumenda et.\nVel modi aliquid.\nNatus saepe voluptates voluptatum dicta.\nAd quia esse nobis est distinctio.\nVitae possimus eos rerum accusamus inventore laboriosam blanditiis eligendi dolores.",
      "photoUrl": "http://lorempixel.com/640/480/people",
      "created": "2016-02-22T03:00:35.940Z",
      "updated": "2015-03-18T14:11:58.948Z",
      "event": true
    },
    {
      "id": 5,
      "center": "Polo Grande Félix",
      "title": "Future Functionality Liason",
      "caption": "Quibusdam aut facilis dolor nihil numquam inventore maiores iste totam.",
      "text": "Suscipit alias qui beatae pariatur.\nAccusamus explicabo dolorem eaque magni quibusdam eveniet distinctio.\nExcepturi provident voluptatem ex incidunt tempore.\nVoluptates velit accusantium aut.\nSint voluptatum quae natus minima fugiat repellat.\n \rDoloribus iure placeat sit est rerum.\nFuga quidem vel recusandae.\nPariatur tempora beatae.\nRerum exercitationem inventore nesciunt dolorem neque.\nVelit repellat repellendus quas eaque.\n \rMolestiae quo cumque.\nNobis itaque voluptas ut odit expedita eos molestiae est.\nQuas ullam ex est dolor tempore ducimus.\nAutem est possimus optio.",
      "photoUrl": "http://lorempixel.com/640/480/nature",
      "created": "2015-12-07T05:08:13.313Z",
      "updated": "2015-12-20T19:13:24.865Z",
      "event": false
    },
    {
      "id": 6,
      "center": "Polo Grande Isabel do Sul",
      "title": "Central Accountability Orchestrator",
      "caption": "Nemo occaecati sequi necessitatibus non repellat nihil iusto repellendus sunt.",
      "text": "Id sint sed eum sed totam.\nAliquid sequi rerum.\nUt magnam inventore aut est cupiditate dignissimos aut.\nUt provident velit eligendi alias vitae incidunt perspiciatis rem rerum.\n \rAsperiores blanditiis aut dolor consequatur earum.\nNam quasi quibusdam et doloribus quod.\nIn incidunt voluptate voluptatem iusto quia et enim quae quidem.\nOfficiis in sint veniam numquam unde.\nAnimi quaerat voluptate eum quo.\nQuasi aliquid accusamus eius consequatur vel nam ad nihil.\n \rOdit eaque facere voluptate.\nEt omnis esse.\nMolestiae sequi omnis voluptatum.\nEaque omnis sequi omnis.\nEos saepe et ut qui exercitationem doloribus quis.",
      "photoUrl": "http://lorempixel.com/640/480/abstract",
      "created": "2016-02-01T11:52:21.084Z",
      "updated": "2015-06-16T15:24:38.023Z",
      "event": true
    },
    {
      "id": 7,
      "center": "Polo Município de Yango",
      "title": "District Integration Consultant",
      "caption": "Iure et vel quibusdam recusandae qui non similique ullam.",
      "text": "Aliquid eaque soluta sit.\nSint quis minus dolor exercitationem temporibus ut.\nVoluptates voluptatibus qui debitis nihil officia nam vero.\n \rArchitecto qui voluptatibus iusto illum magni aperiam ea.\nEt quis fugiat rerum ea veritatis.\nLaborum in tempore voluptas id magnam cumque.\nQuia placeat in pariatur eum.\nTemporibus repudiandae mollitia dolores et quis molestias.\n \rNobis voluptas minima nemo.\nDoloribus similique voluptas.\nNecessitatibus assumenda ipsum dolore.\nQuam atque velit voluptas enim est occaecati.\nTempore qui quis vero beatae nemo temporibus.",
      "photoUrl": "http://lorempixel.com/640/480/animals",
      "created": "2015-06-27T07:27:05.236Z",
      "updated": "2015-10-22T17:49:48.821Z",
      "event": true
    },
    {
      "id": 8,
      "center": "Polo Velha Dalila do Sul",
      "title": "Forward Interactions Liason",
      "caption": "Suscipit qui repellendus reprehenderit.",
      "text": "Vero voluptatem quisquam ea atque aliquid aspernatur.\nCorrupti modi nihil vitae recusandae ea quae.\nLaudantium possimus ratione voluptatibus voluptatem molestiae.\nQuia cupiditate voluptatem dolores omnis distinctio.\n \rFugiat sed quia architecto perferendis.\nVoluptatem natus aut atque.\nQui voluptatem ut assumenda illo molestiae qui.\nIn vero quo impedit assumenda consequatur incidunt quis commodi minima.\n \rPorro et ab cumque.\nSit eum repellat eius placeat eveniet.\nHarum hic adipisci quo quia temporibus est vitae.\nFugit molestias optio rem et.\nSapiente inventore autem amet praesentium molestiae.",
      "photoUrl": "http://lorempixel.com/640/480/technics",
      "created": "2015-07-22T14:35:00.872Z",
      "updated": "2016-03-01T19:02:21.911Z",
      "event": true
    },
    {
      "id": 9,
      "center": "Polo Carvalho do Sul",
      "title": "Chief Integration Assistant",
      "caption": "Et consequuntur molestiae deleniti.",
      "text": "Quibusdam reprehenderit aliquam ut tempora aut nam.\nAut et sint vel rem voluptatem voluptatem sapiente.\nNulla molestiae exercitationem beatae optio voluptates.\nOfficia voluptatem est.\nFacilis est labore repellat.\n \rEarum molestiae praesentium modi dolorum repellat veritatis vel aut voluptas.\nTemporibus dignissimos cupiditate architecto esse corrupti sit dolor.\nOdit et error soluta nam in ut quo.\nEt a facilis consequatur illo eius ad ullam quia.\nQui accusamus autem magnam ipsam nobis.\n \rNecessitatibus quam autem eius.\nMollitia veritatis eum voluptatem nobis rerum atque optio numquam et.\nQuo ratione praesentium nesciunt enim soluta voluptatem porro eum pariatur.\nFacere incidunt ut et voluptatem ipsum corrupti.",
      "photoUrl": "http://lorempixel.com/640/480/animals",
      "created": "2015-06-11T19:15:28.681Z",
      "updated": "2015-07-15T05:39:43.043Z",
      "event": false
    },
    {
      "id": 10,
      "center": "Polo Velha Dalila do Sul",
      "title": "Direct Quality Coordinator",
      "caption": "Totam sed nostrum eos commodi alias hic qui sit inventore.",
      "text": "Aliquam ab quibusdam.\nAut est doloremque corporis rerum aperiam dolorem ullam autem alias.\nIllum iusto ut accusamus sint vitae aut suscipit.\nEnim voluptatibus vero aut eligendi non eos.\n \rUnde est est quo eaque expedita consequuntur.\nEt esse sint quis velit pariatur sapiente vel.\nEsse in sed et quia iure.\n \rNihil ut placeat beatae alias.\nOptio culpa et molestiae et illo ut ipsum.\nSit est quo dolorem suscipit et voluptatem sequi qui.",
      "photoUrl": "http://lorempixel.com/640/480/nature",
      "created": "2015-05-07T04:48:05.394Z",
      "updated": "2016-03-01T20:43:54.709Z",
      "event": false
    },
    {
      "id": 11,
      "center": "Polo Marcela do Sul",
      "title": "Corporate Infrastructure Facilitator",
      "caption": "Error sed et quis ullam quaerat quibusdam corporis necessitatibus illum.",
      "text": "In corporis voluptates sint recusandae ullam ut eveniet.\nCum unde reprehenderit.\nUt praesentium ut quisquam occaecati accusantium soluta maiores doloremque.\nExpedita consequatur voluptate aut commodi saepe nulla ipsam enim rerum.\n \rEnim numquam id itaque.\nDolorem omnis nam consequatur soluta animi esse voluptatem quia nostrum.\nMinus omnis est excepturi aliquid quod.\nConsequuntur autem cum molestiae consectetur et maiores molestias iure.\nAtque quo qui nesciunt.\n \rOmnis atque reprehenderit aut minus iure.\nCum id unde exercitationem eos sed.\nAperiam quasi vel molestias dolore adipisci qui officia.\nQuaerat magni rerum quasi nihil culpa quo modi veritatis consequatur.\nQuo maiores suscipit velit ut error totam ea.",
      "photoUrl": "http://lorempixel.com/640/480/nature",
      "created": "2016-01-01T12:10:15.351Z",
      "updated": "2015-09-02T02:40:23.638Z",
      "event": false
    },
    {
      "id": 12,
      "center": "Polo Município de Carlos do Sul",
      "title": "Future Directives Director",
      "caption": "Ullam nobis non optio odio voluptatum cum libero ipsa.",
      "text": "Non ea consectetur quas ut modi voluptatem.\nIncidunt voluptate consectetur.\nSoluta aut aut consequatur.\nRepellendus dolor iure quam quis neque.\nQuae debitis voluptatem fuga et iusto.\nVel occaecati et nostrum laboriosam maxime ea qui pariatur.\n \rDolores culpa iusto rerum unde debitis consequatur eligendi error.\nVoluptas quia cum cupiditate est quaerat beatae.\nEst quia quidem sapiente voluptatem.\n \rNesciunt sit deserunt corrupti at quae.\nSed deleniti officia velit voluptatibus inventore quidem.\nAutem aut et expedita ducimus amet aut rerum dolorem.\nQuo tempore non occaecati nostrum libero.\nIn rerum debitis.\nVoluptas facere esse optio assumenda voluptatem culpa sapiente.",
      "photoUrl": "http://lorempixel.com/640/480/nightlife",
      "created": "2015-04-23T17:38:54.802Z",
      "updated": "2015-09-05T06:58:48.001Z",
      "event": true
    },
    {
      "id": 13,
      "center": "Polo Velha Dalila do Sul",
      "title": "Chief Division Engineer",
      "caption": "Recusandae alias qui.",
      "text": "Dignissimos repellendus earum temporibus magni rerum libero ipsam.\nVelit ea dolorem est quasi dignissimos maiores voluptatem.\nAt et commodi earum quas placeat non ut ducimus.\nDucimus sint reprehenderit necessitatibus.\n \rHarum amet odio deleniti at iure suscipit non et.\nConsequatur et laborum sunt dolorum dicta iusto.\nEos placeat nobis veritatis illo quia.\n \rRepellat molestias iusto perferendis fugiat odio sed.\nConsectetur nostrum ut quaerat suscipit ut repellendus omnis incidunt nam.\nConsequatur voluptatem reiciendis culpa quia nobis debitis.\nQui illo ipsam et dicta.\nNesciunt aut non tempore quisquam commodi maiores.\nAt eos repudiandae natus et vitae libero quod est.",
      "photoUrl": "http://lorempixel.com/640/480/technics",
      "created": "2015-07-19T12:13:49.291Z",
      "updated": "2015-05-25T23:39:17.087Z",
      "event": true
    },
    {
      "id": 14,
      "center": "Polo Velha Núbia do Descoberto",
      "title": "Global Branding Supervisor",
      "caption": "Illum impedit adipisci.",
      "text": "Ea eos et et.\nRatione dolorem vitae voluptatibus.\nVoluptas voluptas laudantium.\nUt neque quod corrupti dolores quia.\nUt impedit et vero.\n \rEst aut provident et.\nMinus neque perferendis aut mollitia.\nNulla sequi ipsa ipsam omnis quas quia sit totam.\nAlias velit consectetur sint dolorem et odit qui accusamus facilis.\n \rReiciendis eveniet a inventore rerum.\nId alias soluta.\nConsectetur pariatur perferendis deleniti autem.\nVoluptatem asperiores quidem quo et reprehenderit porro.",
      "photoUrl": "http://lorempixel.com/640/480/transport",
      "created": "2015-03-26T00:08:17.946Z",
      "updated": "2015-05-15T04:59:52.680Z",
      "event": false
    },
    {
      "id": 15,
      "center": "Polo Velha Núbia do Descoberto",
      "title": "Senior Assurance Consultant",
      "caption": "Deleniti vel est ex placeat et.",
      "text": "Laboriosam consequatur reiciendis nobis tempora a.\nDolorum molestiae iure ab mollitia.\nDicta autem adipisci consequatur consequatur cupiditate nobis qui eos voluptatum.\nSunt temporibus aut.\nQuia odit reprehenderit rerum quia quia et neque.\n \rVeniam vel molestias dolorem earum.\nConsequatur iste dolores.\nVelit et blanditiis laborum perspiciatis et unde quo nihil cumque.\nDucimus aut non est harum a.\n \rFacilis optio sit.\nVoluptatibus est rerum quas.\nVoluptatem fuga quia ut repellendus delectus sequi dolorum quia asperiores.\nHic architecto ut quia illum explicabo porro praesentium.\nNon quia reiciendis.\nVoluptatem minus incidunt ut odit ut aliquam sed.",
      "photoUrl": "http://lorempixel.com/640/480/transport",
      "created": "2015-09-12T06:40:09.986Z",
      "updated": "2015-11-06T11:32:16.732Z",
      "event": false
    },
    {
      "id": 16,
      "center": "Polo Grande Isabel do Sul",
      "title": "Central Functionality Specialist",
      "caption": "Cum non illum ea minus voluptatem et quibusdam ut nostrum.",
      "text": "Quod dolorem ullam at dicta consequuntur veniam ad soluta.\nSunt vero officiis nesciunt saepe.\nOdit enim voluptatem impedit deleniti ex saepe tenetur ea reprehenderit.\nExpedita temporibus quis tempore cumque.\nIllum fugiat nesciunt molestiae voluptate minus sit autem quaerat minima.\nQui magni architecto nesciunt voluptates.\n \rLaborum consequuntur pariatur eaque illum incidunt similique praesentium et.\nLaborum et rerum omnis sit adipisci.\nOccaecati sed accusamus et nam esse ut.\nDolorem eius sunt facere.\nEa ut eius autem quae consequatur.\nQuia eos explicabo.\n \rReiciendis quam facilis mollitia ad tenetur necessitatibus assumenda aperiam et.\nConsequatur quis distinctio aliquid cupiditate labore eius.\nConsequatur dolor vel doloribus est officiis exercitationem sed.\nUt saepe iusto voluptas assumenda error amet eius a inventore.\nEt occaecati esse eaque rerum mollitia eligendi est dolorum.",
      "photoUrl": "http://lorempixel.com/640/480/people",
      "created": "2015-05-02T02:25:41.192Z",
      "updated": "2016-01-31T17:56:32.065Z",
      "event": true
    },
    {
      "id": 17,
      "center": "Polo Joana do Sul",
      "title": "Chief Marketing Supervisor",
      "caption": "Dolores est in omnis quidem aliquam assumenda atque culpa ea.",
      "text": "Quos voluptatum omnis ratione.\nTenetur qui velit incidunt enim et aperiam quia illum nulla.\nEt et delectus quos.\n \rEt laborum deleniti excepturi qui reiciendis hic recusandae non.\nAutem illo et accusantium.\nSint esse eligendi sunt odit est.\n \rEt veniam qui illo.\nEnim et autem sed quae eos quasi nam.\nCupiditate excepturi fuga ut aut nulla quod necessitatibus quis.\nNihil asperiores soluta est id sit.\nVoluptatem ut voluptatem natus unde error.",
      "photoUrl": "http://lorempixel.com/640/480/fashion",
      "created": "2015-04-11T20:15:09.747Z",
      "updated": "2016-02-09T20:29:56.144Z",
      "event": false
    },
    {
      "id": 18,
      "center": "Polo Grande Félix",
      "title": "Customer Infrastructure Strategist",
      "caption": "Vero a fugiat sed eligendi sint.",
      "text": "Voluptas nobis iure occaecati.\nVeritatis voluptate iusto molestiae nisi quia.\nCorporis officiis ipsa quia assumenda qui et quisquam sapiente.\nQuidem deserunt in.\nEum occaecati aperiam dignissimos.\n \rQuisquam laboriosam autem quasi consequatur tempora nam voluptas.\nError enim dolorum similique ratione.\nPraesentium et ipsa eos placeat quos voluptate debitis a ut.\nDignissimos praesentium laudantium vitae corporis ut qui ipsam aspernatur cupiditate.\n \rAnimi at iste exercitationem in sit eum.\nAdipisci temporibus tempora libero illo.\nAperiam maiores nam.",
      "photoUrl": "http://lorempixel.com/640/480/food",
      "created": "2015-10-27T04:54:03.381Z",
      "updated": "2015-08-09T18:58:36.814Z",
      "event": false
    },
    {
      "id": 19,
      "center": "Polo Sara do Norte",
      "title": "National Intranet Representative",
      "caption": "Cupiditate sit commodi sequi minus aliquam in quae cum nostrum.",
      "text": "Et est eligendi ipsa vero reiciendis et.\nNatus est magni non id quod rerum nihil voluptates.\nEius laborum rerum ipsum.\nHarum enim ipsa quibusdam rerum.\nAutem officia aliquam ad delectus ut culpa sed.\nDelectus accusantium quod quibusdam expedita.\n \rMollitia quam ex ut qui temporibus ea.\nTemporibus qui sint animi quisquam mollitia repudiandae eius suscipit.\nIure maxime cum.\nEos ab provident repudiandae qui facilis perspiciatis.\nIncidunt id quas molestias occaecati dicta sit sed iste.\nNon enim aspernatur ab est repellat dolorum incidunt eligendi.\n \rMinus eum ipsum atque ducimus totam et quis autem quod.\nAmet et omnis commodi est harum sunt dolore.\nDignissimos possimus dolores minus ut qui fugit.\nUnde illum aliquid laboriosam error sed nostrum quibusdam.\nNon quibusdam omnis.",
      "photoUrl": "http://lorempixel.com/640/480/abstract",
      "created": "2015-10-31T16:42:02.756Z",
      "updated": "2016-02-18T06:27:36.932Z",
      "event": true
    },
    {
      "id": 20,
      "center": "Polo Grande Isabel do Sul",
      "title": "Investor Data Engineer",
      "caption": "Maxime et deserunt maiores quia similique non omnis.",
      "text": "Nemo qui sapiente culpa at quia magni a.\nIn tempore in rerum dolores vero dolorem.\nQuo fugit aut quia commodi nihil nesciunt adipisci dolor reiciendis.\nVoluptatem non et ducimus et cumque deleniti officiis quod mollitia.\nNihil similique nisi aliquid veniam.\n \rEligendi facere consectetur sapiente ratione.\nOccaecati et harum.\nOmnis voluptatibus eos.\n \rNihil inventore amet neque nostrum commodi.\nRepudiandae fuga blanditiis cupiditate aut quibusdam aut eum ut commodi.\nVoluptas ex quisquam.\nNon qui consequatur eligendi voluptas.",
      "photoUrl": "http://lorempixel.com/640/480/city",
      "created": "2015-05-09T12:07:07.402Z",
      "updated": "2015-10-05T23:10:33.809Z",
      "event": false
    },
    {
      "id": 21,
      "center": "Polo Joana do Sul",
      "title": "Future Intranet Strategist",
      "caption": "Cum et deleniti in.",
      "text": "Sed numquam quasi accusamus quia eum voluptatibus omnis.\nSoluta odio blanditiis ratione qui quasi distinctio.\nEt sint sint natus necessitatibus recusandae deleniti.\nSequi voluptas est quibusdam ipsam accusamus.\nModi sequi quaerat quae ut.\nVoluptatum eum sequi autem iusto.\n \rEt ut consequatur et est deserunt similique explicabo.\nEaque sit sunt neque quibusdam commodi vel in omnis.\nVitae autem reiciendis est assumenda ut qui architecto qui.\nEt exercitationem aut qui.\n \rSequi cum omnis qui.\nOccaecati alias voluptas sunt.\nSit quia et quia atque.\nOptio natus blanditiis est quaerat et fugiat exercitationem eaque est.\nPossimus occaecati molestias porro voluptate non.",
      "photoUrl": "http://lorempixel.com/640/480/nature",
      "created": "2016-01-13T21:23:22.400Z",
      "updated": "2015-05-03T20:42:04.565Z",
      "event": false
    },
    {
      "id": 22,
      "center": "Polo Grande Rafaela",
      "title": "International Accounts Planner",
      "caption": "Sit sunt sint est et.",
      "text": "Aliquid nihil non placeat qui cum.\nNam ducimus officia voluptas architecto provident.\nQuis cum atque.\nEx illo consequatur sed ut qui.\nSit tenetur molestias perferendis quis ab enim rerum expedita aperiam.\n \rAccusamus id ut dolores ea quas aliquam voluptates debitis quia.\nNemo incidunt nobis dolore quidem alias beatae ut.\nHic quasi ex est et molestiae magnam explicabo.\nCumque in sit ratione nihil incidunt excepturi laboriosam et facilis.\nVel quia eos et sed ut explicabo.\nModi exercitationem quaerat occaecati ipsa sed architecto voluptates numquam.\n \rDebitis odit dicta praesentium officia.\nDolor est dolor et delectus unde tempore iste.\nExercitationem perferendis quo nesciunt aliquid beatae.",
      "photoUrl": "http://lorempixel.com/640/480/cats",
      "created": "2015-09-23T00:42:05.053Z",
      "updated": "2015-08-16T22:29:51.440Z",
      "event": false
    },
    {
      "id": 23,
      "center": "Polo Grande Carlos do Norte",
      "title": "Central Program Planner",
      "caption": "Non quibusdam voluptatem.",
      "text": "Quia consequuntur nesciunt.\nArchitecto consectetur nesciunt mollitia et illo libero incidunt porro vel.\nDicta quaerat eius.\n \rCorrupti qui quia omnis saepe.\nAccusamus omnis fugit ut minima commodi.\nIste neque repudiandae voluptates tempora atque corporis et quae explicabo.\nAdipisci ut aut cumque officiis quisquam aliquam corrupti laudantium.\n \rMaxime vel voluptatem repellat.\nAut distinctio quasi soluta quas vitae magnam quia.\nAssumenda et voluptas exercitationem eius aliquam dolore eos atque quia.",
      "photoUrl": "http://lorempixel.com/640/480/cats",
      "created": "2015-11-03T18:39:52.506Z",
      "updated": "2015-05-03T23:25:00.957Z",
      "event": true
    },
    {
      "id": 24,
      "center": "Polo Município de Dalila do Sul",
      "title": "Central Directives Representative",
      "caption": "Omnis earum dicta.",
      "text": "Enim vel cum ducimus qui dolores voluptatem ut.\nVel recusandae quas itaque veniam.\nAut suscipit et.\nVelit fugiat quidem maiores soluta praesentium fuga enim voluptate et.\nEos error nihil quaerat dolorem soluta est voluptate ad blanditiis.\nVero consequatur modi expedita unde omnis ut maxime dolor.\n \rIllo est rem officia culpa necessitatibus.\nQuia ad explicabo fugiat.\nMagnam sit aut perspiciatis eos.\nEa totam omnis.\nHarum ut quibusdam aut odio ex nihil voluptatibus.\nDolorum aut accusamus delectus.\n \rAccusantium ad molestiae voluptatem quasi iusto.\nTemporibus iusto aut eligendi sunt eos dolore magni ex recusandae.\nEa illo ut esse ipsam in eos enim sed sed.\nQuaerat qui ut.\nDolorem asperiores iusto animi doloremque voluptas dicta ad dolorum.",
      "photoUrl": "http://lorempixel.com/640/480/nature",
      "created": "2015-05-10T05:36:51.690Z",
      "updated": "2015-10-01T23:45:39.918Z",
      "event": true
    },
    {
      "id": 25,
      "center": "Polo Município de Carlos do Sul",
      "title": "Future Accountability Developer",
      "caption": "Rerum ea voluptatem odit illo esse sed sit voluptatibus.",
      "text": "Voluptatibus nam consequatur omnis veniam.\nEum molestiae dolor et voluptas similique velit.\nSapiente magni repudiandae placeat possimus autem et.\nNisi ut nemo maiores ipsam quam ea beatae.\nAperiam inventore consequuntur nihil ut omnis.\nRem est aperiam sit veniam maiores eius nesciunt iusto sint.\n \rEum laboriosam aperiam expedita quaerat commodi rerum.\nUnde rerum fugiat autem est.\nEst ipsa magnam quisquam vel.\nLabore expedita est deserunt repellat inventore impedit molestias dolorem.\nDoloribus ad et quam.\nPlaceat hic harum consequatur soluta et.\n \rNam dolorem dolor eum atque tenetur consequuntur.\nOccaecati ea adipisci nemo incidunt dolore.\nEnim perspiciatis qui modi laboriosam est quidem laudantium.\nOfficia alias aut consequatur.\nAmet mollitia laboriosam quisquam consequatur quae veniam autem sed sunt.",
      "photoUrl": "http://lorempixel.com/640/480/business",
      "created": "2015-04-21T11:52:23.202Z",
      "updated": "2015-09-08T01:15:14.669Z",
      "event": true
    },
    {
      "id": 26,
      "center": "Polo Grande Danilo do Descoberto",
      "title": "Forward Infrastructure Technician",
      "caption": "Ullam deleniti blanditiis.",
      "text": "Modi quia explicabo aut porro molestias odit fuga.\nTempora unde nesciunt.\nQuam corrupti eos accusamus adipisci sapiente.\n \rA magnam nam vel minus.\nModi pariatur consequatur aut beatae sunt culpa esse repellendus.\nDolorem architecto quia consequatur dolores est sunt natus ut.\nEarum enim eum iste est quia.\n \rOdit ullam voluptatum modi nobis officia amet et sit.\nLaborum dolor fugit dicta qui eos sit.\nDolores velit accusamus eum impedit quaerat consequuntur et aliquid.",
      "photoUrl": "http://lorempixel.com/640/480/cats",
      "created": "2015-09-12T08:09:51.321Z",
      "updated": "2015-07-30T23:55:17.450Z",
      "event": true
    },
    {
      "id": 27,
      "center": "Polo Município de Carlos do Sul",
      "title": "Senior Tactics Strategist",
      "caption": "Quia voluptas iste labore.",
      "text": "Ad vero et debitis.\nModi rerum tempora sequi minus.\nSint consequatur optio quam occaecati hic corrupti molestiae dolores totam.\nQui voluptas omnis.\n \rSaepe reiciendis quis sunt voluptatibus.\nVoluptates veritatis nemo alias rerum.\nAssumenda culpa minus odio praesentium est ea.\n \rTemporibus libero error et est.\nUt quas adipisci quae eligendi nisi.\nEum provident a deserunt autem et esse molestiae.\nUt molestias atque quo omnis aut.\nOdit aut dolores non voluptatem.\nQuibusdam sed eum quia dolorem fugiat qui rerum.",
      "photoUrl": "http://lorempixel.com/640/480/nightlife",
      "created": "2015-05-11T15:20:56.586Z",
      "updated": "2015-07-12T15:50:21.450Z",
      "event": false
    },
    {
      "id": 28,
      "center": "Polo Joana do Sul",
      "title": "District Mobility Planner",
      "caption": "Id aut commodi vel est architecto sunt sint voluptate.",
      "text": "Nulla necessitatibus minima doloribus in.\nRerum reiciendis molestiae esse dolorum.\nQuo in repudiandae molestiae consequuntur ea.\nEt animi quis distinctio explicabo.\nQuasi et quia.\n \rOdio autem quisquam.\nCumque voluptas vel ipsam asperiores qui.\nA blanditiis ipsam error ut facilis officia iusto quia.\nCum dolores quibusdam placeat.\nQuae odit qui.\n \rQuae amet dolores voluptates.\nEst corporis dolore sit molestias blanditiis.\nRerum nihil quia eligendi.\nQuis qui ut consequuntur consequatur.\nQui ullam magni sequi mollitia et omnis rerum hic a.",
      "photoUrl": "http://lorempixel.com/640/480/people",
      "created": "2015-11-27T09:19:54.114Z",
      "updated": "2016-02-25T06:57:16.915Z",
      "event": true
    },
    {
      "id": 29,
      "center": "Polo Nova Norberto do Descoberto",
      "title": "Direct Directives Specialist",
      "caption": "Reiciendis nisi nobis doloribus rerum excepturi veniam dolorem optio.",
      "text": "Soluta dolor ullam.\nUnde tempora fuga molestias a qui exercitationem quia praesentium qui.\nQuo sit sed laborum sed quisquam odio aperiam.\n \rRepellat nulla neque ipsa odio nisi autem tenetur.\nRem sapiente consequuntur itaque corporis omnis autem omnis mollitia qui.\nQuasi eum repellat nobis impedit quos similique harum.\n \rQuis reiciendis fuga.\nNisi illo voluptas dolorem error minus.\nNatus dolor in.",
      "photoUrl": "http://lorempixel.com/640/480/people",
      "created": "2015-05-21T20:00:57.287Z",
      "updated": "2015-10-13T11:42:13.708Z",
      "event": false
    },
    {
      "id": 30,
      "center": "Polo Grande Danilo do Descoberto",
      "title": "Regional Usability Associate",
      "caption": "Quia sit delectus.",
      "text": "Placeat qui voluptates inventore.\nDoloremque maiores dolor iste est.\nSunt dignissimos consectetur autem possimus eum laudantium.\nAssumenda fuga deleniti ea earum non et nisi.\nMolestiae ipsa aut quasi ut laborum exercitationem autem molestiae aut.\n \rExercitationem ducimus tenetur maxime voluptatem pariatur.\nEum labore pariatur.\nNihil vel sunt quisquam reprehenderit.\nQuia animi quisquam magni minima incidunt molestias enim dolor et.\nEt magni veritatis aut.\n \rAlias fugiat sunt non placeat voluptas.\nDolores repellendus sint enim incidunt et qui placeat.\nRem et mollitia praesentium.\nOmnis esse omnis non quibusdam quis sit rem qui.",
      "photoUrl": "http://lorempixel.com/640/480/city",
      "created": "2016-01-18T02:02:35.987Z",
      "updated": "2015-11-01T18:35:59.242Z",
      "event": false
    },
    {
      "id": 31,
      "center": "Polo Velha Núbia do Descoberto",
      "title": "Chief Integration Facilitator",
      "caption": "Excepturi dicta animi ut id ex.",
      "text": "Voluptatum suscipit laborum facere quam alias a repellendus.\nVeniam omnis beatae et non voluptates.\nBlanditiis ad et ut occaecati ipsum.\nOmnis quibusdam illum sed voluptas.\nId est quia sit.\n \rSit illum minima repellendus.\nEos dicta natus odio quos quod commodi perspiciatis ab non.\nEt aut maxime tempore excepturi et aut consequatur aut voluptas.\nDeleniti blanditiis qui laudantium vel esse consectetur et.\nQuia dolor consequuntur vero tempore qui commodi.\n \rAliquam unde eligendi ut voluptatem laudantium vitae deleniti.\nQuia quod rem quis consequatur non.\nEa dicta minima velit beatae veritatis odio sed voluptatem atque.\nQuo provident fugiat voluptas alias exercitationem voluptas dolorem.",
      "photoUrl": "http://lorempixel.com/640/480/city",
      "created": "2015-11-19T02:34:43.537Z",
      "updated": "2015-03-14T20:43:22.953Z",
      "event": true
    },
    {
      "id": 32,
      "center": "Polo Martins de Nossa Senhora",
      "title": "Investor Security Technician",
      "caption": "Nihil itaque natus voluptas laudantium.",
      "text": "Qui molestias recusandae sed assumenda ipsam et.\nEx sint voluptates odit ut.\nSed sint tenetur omnis velit nam dolorem.\nQuibusdam ut velit.\nPerferendis cum ut qui facilis.\nQuam dignissimos dolore enim unde numquam laudantium earum qui cupiditate.\n \rCommodi laborum magnam sed ut facilis dolorem est.\nCupiditate doloribus assumenda placeat praesentium adipisci nostrum.\nExpedita sequi laborum assumenda dolores labore at dolor aperiam ut.\nPorro dolor asperiores maiores architecto illum tempora et error voluptatem.\n \rNon nam corporis aut.\nBlanditiis et beatae et ut.\nEt vel soluta totam odit et.\nNihil voluptatem et blanditiis nobis voluptatem.\nIusto qui qui recusandae rerum maiores.",
      "photoUrl": "http://lorempixel.com/640/480/cats",
      "created": "2015-10-05T21:57:24.201Z",
      "updated": "2015-07-29T13:55:49.290Z",
      "event": true
    },
    {
      "id": 33,
      "center": "Polo Vila Meire",
      "title": "National Marketing Agent",
      "caption": "Minus sapiente cum odio velit qui.",
      "text": "Qui reprehenderit nihil enim.\nCorporis quis velit nihil iusto.\nQuia omnis cupiditate illo nisi est qui repellat voluptates.\n \rDeleniti dolore culpa tempora.\nQui necessitatibus officiis et.\nAssumenda corporis atque neque quibusdam.\n \rConsequatur saepe unde sed quae.\nAliquid ipsam sint et quibusdam magni.\nSint dolores explicabo aperiam eum voluptatibus.\nLaboriosam excepturi aperiam eum voluptatem quod.",
      "photoUrl": "http://lorempixel.com/640/480/transport",
      "created": "2015-09-24T21:50:34.369Z",
      "updated": "2015-07-26T03:42:00.774Z",
      "event": true
    },
    {
      "id": 34,
      "center": "Polo Grande Danilo do Descoberto",
      "title": "Forward Tactics Strategist",
      "caption": "Qui sed voluptatum pariatur sunt unde.",
      "text": "Temporibus maxime dolor quod facere omnis est debitis.\nOdio magnam saepe excepturi eaque qui quos eligendi necessitatibus est.\nFacilis magnam iste ipsum voluptate.\nVelit cumque expedita ut recusandae et.\nAd dolor aut harum ut vel.\nCorporis dolores quas eaque sequi eligendi iure odio quia.\n \rEnim quis tenetur nostrum placeat perferendis quidem sit quaerat voluptatem.\nQuod odit aut quas dicta sit magnam voluptas.\nAut ut libero aliquam modi esse molestiae eveniet recusandae.\nSit ipsum voluptate ut.\nPlaceat non saepe cumque.\nIusto consequatur omnis.\n \rSimilique qui veritatis harum voluptates sunt.\nSit ipsa placeat.\nUllam voluptas soluta illo est reiciendis nesciunt.",
      "photoUrl": "http://lorempixel.com/640/480/abstract",
      "created": "2016-03-01T12:22:27.277Z",
      "updated": "2015-12-29T19:40:42.580Z",
      "event": true
    },
    {
      "id": 35,
      "center": "Polo Sara do Norte",
      "title": "Direct Quality Strategist",
      "caption": "Ut eligendi est voluptatem consectetur officiis tempora vitae non quidem.",
      "text": "Aperiam possimus laboriosam ut ut et.\nQuisquam aut laborum provident sit natus quae.\nNihil et earum aut et vitae perspiciatis.\nAssumenda quam nesciunt aliquam asperiores ipsa voluptatem et.\nVoluptatem tenetur est aliquid aut rerum.\nAut odio amet temporibus animi.\n \rA nesciunt facilis quidem nihil sequi qui consequatur voluptate.\nQuidem quo voluptatem ipsa sint.\nNostrum aperiam iusto.\nIpsa consequatur vel beatae occaecati sit architecto.\n \rTemporibus porro quo et sed sint earum iure.\nExcepturi animi porro.\nDicta laboriosam accusantium harum eos voluptatibus tempore quia.\nOdio aut iste ipsa commodi corporis veritatis.\nEst quia reiciendis praesentium autem laborum provident itaque voluptas.",
      "photoUrl": "http://lorempixel.com/640/480/nightlife",
      "created": "2015-09-06T17:43:36.433Z",
      "updated": "2015-05-16T23:08:46.159Z",
      "event": true
    },
    {
      "id": 36,
      "center": "Polo César de Nossa Senhora",
      "title": "District Communications Orchestrator",
      "caption": "Alias voluptas quasi expedita tempore natus deserunt aperiam laboriosam.",
      "text": "Voluptas maxime eos ea provident iure est est asperiores omnis.\nAlias qui harum.\nEa quod assumenda quas hic vitae reprehenderit autem.\n \rEx et est.\nUt doloribus sunt repellendus quibusdam praesentium repudiandae ipsa suscipit.\nQuis esse possimus incidunt.\n \rQui omnis et quod quidem sed dolores dolorem.\nExercitationem laudantium quod cumque fugit.\nQuo unde aut aliquam blanditiis est.",
      "photoUrl": "http://lorempixel.com/640/480/sports",
      "created": "2015-07-24T07:19:50.824Z",
      "updated": "2016-03-03T19:52:48.697Z",
      "event": false
    },
    {
      "id": 37,
      "center": "Polo Moraes do Norte",
      "title": "Future Identity Coordinator",
      "caption": "Nisi dolores quia ratione possimus sit officiis iusto.",
      "text": "A minus illo illum sit magnam.\nAspernatur ipsa voluptate.\nEst ut eos et quidem et.\nSimilique impedit quam eos laudantium perspiciatis sit autem.\n \rNobis architecto consectetur ad tenetur ut.\nUt et corporis corrupti nulla non voluptas ab nemo sed.\nEt cupiditate eos autem non quia id.\nLibero magnam laudantium explicabo quidem in dignissimos est.\nItaque qui illum exercitationem sit in.\nArchitecto voluptatem laborum laudantium aut qui nulla.\n \rVero facere soluta quod magnam nihil.\nDoloribus quia minima placeat sit similique sit.\nNisi consequatur quis voluptatem sint occaecati et voluptatem consectetur.",
      "photoUrl": "http://lorempixel.com/640/480/fashion",
      "created": "2015-11-17T08:38:28.691Z",
      "updated": "2015-08-29T21:27:33.675Z",
      "event": false
    },
    {
      "id": 38,
      "center": "Polo Grande Felícia",
      "title": "Future Group Assistant",
      "caption": "Eaque accusamus quas est commodi ut quidem incidunt.",
      "text": "Quia perspiciatis pariatur dolore possimus quis similique molestiae sit.\nConsequatur ea iusto omnis.\nUt enim neque mollitia.\nQuos a ex optio quisquam qui.\n \rRerum quae et quia necessitatibus sed.\nEt soluta sunt nihil et et repellendus sed.\nQuo voluptas sit omnis.\nVoluptas et delectus quis expedita.\n \rEsse non ab.\nEt eos officia.\nVero ad odit rerum ut provident.\nPlaceat perspiciatis itaque doloremque quibusdam ad ea dolores.\nIncidunt atque reiciendis sint est repellat exercitationem corporis nulla.",
      "photoUrl": "http://lorempixel.com/640/480/sports",
      "created": "2015-06-08T05:06:19.887Z",
      "updated": "2015-06-08T03:09:45.179Z",
      "event": true
    },
    {
      "id": 39,
      "center": "Polo Grande Rafaela",
      "title": "Customer Web Facilitator",
      "caption": "Eligendi sunt placeat quos.",
      "text": "Non aliquam possimus eos.\nCupiditate quo suscipit omnis aut impedit et sint odio voluptas.\nInventore eaque architecto et id natus et doloribus.\nAnimi eius dolores sint consequatur ut et eligendi.\nNon nam aut minus laborum corrupti sint neque sed soluta.\nId alias qui fugiat.\n \rUt ducimus sint sit.\nSoluta consequatur molestiae.\nSimilique aut aut recusandae rem at ipsa.\nQui sunt eligendi libero et.\nFugiat voluptatem quasi qui consequatur sunt blanditiis repellendus rem.\n \rQui in porro ea sunt sed ullam id est aliquam.\nSint odit sed quia commodi facere odio cupiditate ut recusandae.\nAperiam et dolores rerum omnis velit laboriosam deleniti exercitationem eum.",
      "photoUrl": "http://lorempixel.com/640/480/fashion",
      "created": "2015-10-21T14:31:10.398Z",
      "updated": "2016-01-05T01:37:44.235Z",
      "event": true
    },
    {
      "id": 40,
      "center": "Polo Grande Felícia",
      "title": "Corporate Applications Coordinator",
      "caption": "Aut asperiores sed qui veritatis deserunt nihil excepturi placeat.",
      "text": "Animi optio eum.\nTempora enim quae sint nisi.\nPerferendis ducimus fugiat et esse.\nEt et totam.\n \rEt corporis voluptates eum reprehenderit ut rerum quae id dolores.\nItaque minus est dicta officiis accusantium deleniti incidunt veritatis nisi.\nEt nostrum qui accusantium placeat error vel.\n \rDolorem saepe et ipsam nostrum quos.\nOfficiis doloremque sunt soluta iusto.\nReprehenderit enim cumque est eius et velit.",
      "photoUrl": "http://lorempixel.com/640/480/cats",
      "created": "2015-10-08T22:19:44.299Z",
      "updated": "2016-02-22T06:02:57.526Z",
      "event": false
    },
    {
      "id": 41,
      "center": "Polo Nova Norberto do Descoberto",
      "title": "Legacy Assurance Orchestrator",
      "caption": "Soluta sapiente delectus est et ullam.",
      "text": "Facilis blanditiis deleniti recusandae ut accusamus natus.\nEveniet similique autem autem et rem commodi repudiandae.\nDoloribus ipsa nihil ut quia ut beatae.\nVoluptas ut aut quaerat mollitia.\nVeritatis et ducimus ipsum dolorem nobis quam et placeat ea.\n \rDolorem est pariatur veritatis dolores ratione at ea provident.\nBeatae numquam et dignissimos sunt sed repudiandae at.\nBlanditiis illo exercitationem rerum iste vel nihil mollitia esse.\nEt ex sit.\nNesciunt provident expedita neque optio corporis.\n \rOdit perspiciatis minus sit velit.\nCumque soluta repellendus pariatur qui sit.\nEos alias quae modi quia.\nEt molestias cumque officia modi eveniet eius corporis minima temporibus.\nModi sed hic deleniti consequatur est amet quas.\nEt necessitatibus quia neque dicta.",
      "photoUrl": "http://lorempixel.com/640/480/abstract",
      "created": "2015-11-15T01:44:39.005Z",
      "updated": "2015-04-04T10:32:09.322Z",
      "event": false
    },
    {
      "id": 42,
      "center": "Polo Elísio do Sul",
      "title": "Dynamic Applications Agent",
      "caption": "Eveniet quia rerum sint nam.",
      "text": "Nesciunt doloribus sit dolores corporis voluptatem ut occaecati.\nSint totam reprehenderit assumenda similique et rerum autem.\nReprehenderit officia sit eligendi et.\nBeatae similique inventore repellat molestiae vero enim.\nQuisquam est ut beatae ut ea excepturi.\n \rUt esse consequuntur ipsa.\nOfficia et corrupti aut.\nIpsam ut cupiditate hic alias assumenda enim cum.\nEt doloremque dolorem numquam.\nIpsum unde officia qui in sunt sit non ut ipsa.\n \rAsperiores omnis enim modi qui error ad exercitationem fuga sint.\nQuis sequi vel id recusandae.\nAdipisci dicta at fugiat numquam corrupti.\nAtque amet sint sed repudiandae eius.",
      "photoUrl": "http://lorempixel.com/640/480/city",
      "created": "2016-01-28T00:44:04.620Z",
      "updated": "2015-05-25T09:10:20.391Z",
      "event": true
    },
    {
      "id": 43,
      "center": "Polo Município de Pablo",
      "title": "Regional Identity Representative",
      "caption": "In sed et mollitia voluptatem.",
      "text": "Qui officia dolorem at.\nAut neque veritatis quaerat ut.\nSimilique quia doloremque.\n \rIncidunt quis totam blanditiis magnam omnis quaerat tenetur cumque id.\nProvident cum est.\nQuae earum incidunt possimus et deleniti accusantium.\nIn quisquam sed dolor qui aliquid esse nemo.\nEst nesciunt culpa quas amet.\n \rLaudantium consequatur voluptatem nostrum.\nSit nihil nisi sunt et autem earum hic perspiciatis.\nVoluptatibus et eius vel ea rerum quia.",
      "photoUrl": "http://lorempixel.com/640/480/business",
      "created": "2015-07-06T11:54:38.617Z",
      "updated": "2016-02-05T16:08:37.846Z",
      "event": true
    },
    {
      "id": 44,
      "center": "Polo Velha Núbia do Descoberto",
      "title": "Legacy Solutions Assistant",
      "caption": "Animi pariatur voluptatem rerum architecto exercitationem et ut asperiores.",
      "text": "Officia quidem qui qui.\nLaboriosam officia eveniet sequi sunt repellendus quibusdam qui distinctio.\nOmnis ullam non excepturi iusto voluptatibus ipsum et velit ipsam.\nEnim reiciendis ut voluptatem sint eos aut eveniet.\nId optio ut repellat adipisci ipsam expedita.\n \rEt sit possimus quo exercitationem beatae consequatur natus consequatur.\nAut earum saepe nisi quas est eaque soluta eos aliquid.\nQui eius quos.\nIncidunt dolores qui non voluptatem quia ducimus ullam aut dolorem.\n \rNulla quisquam officia ut veritatis beatae omnis blanditiis tenetur nam.\nEx quia error excepturi nesciunt accusamus sit qui.\nEius ad ipsum soluta.\nDolore et perferendis similique non quia fugit.\nQuas nihil eum sed ut provident error suscipit voluptatem eveniet.\nNemo sequi omnis nesciunt dolorem fugit est voluptas.",
      "photoUrl": "http://lorempixel.com/640/480/fashion",
      "created": "2015-11-01T18:57:17.374Z",
      "updated": "2015-04-27T05:04:32.732Z",
      "event": true
    },
    {
      "id": 45,
      "center": "Polo Grande Célia do Descoberto",
      "title": "Principal Identity Analyst",
      "caption": "Expedita nihil et sint laboriosam enim sequi sit.",
      "text": "Porro ipsum quis repudiandae unde nulla quidem possimus.\nOmnis consequatur consequatur odit est.\nQuis facilis asperiores laborum ab magnam explicabo.\nQui voluptate et dolorem non.\n \rDolore dolorem qui nobis at.\nMinus explicabo et adipisci fugiat est autem.\nCum culpa sit.\nQuaerat voluptatem nam assumenda ut qui quisquam velit reprehenderit est.\nSint minus et iste impedit.\n \rVeritatis adipisci itaque earum corrupti in.\nSed adipisci dicta.\nAssumenda placeat dolores amet.\nIure dolores architecto non odit dignissimos nisi vel rem quam.\nAut labore itaque nemo perferendis nulla libero quisquam.\nQui quidem non.",
      "photoUrl": "http://lorempixel.com/640/480/nightlife",
      "created": "2015-09-18T16:19:19.527Z",
      "updated": "2015-11-29T08:30:44.354Z",
      "event": false
    },
    {
      "id": 46,
      "center": "Polo Ladislau do Norte",
      "title": "Chief Accountability Strategist",
      "caption": "Magni voluptatem pariatur dignissimos natus laudantium minima voluptatum consequatur.",
      "text": "Pariatur consectetur quia et eligendi sed rerum placeat.\nCommodi ut harum modi et.\nFugiat enim qui occaecati quia illum quisquam eligendi.\nIusto voluptate totam id quibusdam rerum omnis voluptas quidem.\n \rEt adipisci optio tempora perferendis et occaecati maiores soluta.\nVoluptatem at repellendus ut placeat.\nMolestiae provident et veniam totam corrupti est qui dolores et.\nConsequatur qui dolor alias est sunt eligendi.\nVel sint et aut consequatur maxime ipsum nihil.\n \rReiciendis placeat officiis recusandae perferendis adipisci voluptas distinctio.\nEaque dolores vitae.\nNobis aspernatur sint ipsam dolores doloremque.",
      "photoUrl": "http://lorempixel.com/640/480/city",
      "created": "2015-11-15T15:26:17.294Z",
      "updated": "2015-04-20T20:13:12.737Z",
      "event": true
    },
    {
      "id": 47,
      "center": "Polo Grande Félix",
      "title": "Direct Optimization Assistant",
      "caption": "Ut accusamus voluptas iusto nobis mollitia.",
      "text": "Modi non autem quidem cum dolores.\nSed et autem eveniet incidunt laboriosam ab molestias et eaque.\nSunt minima eveniet eum iure in labore optio nulla dolor.\n \rNatus nisi corrupti.\nSimilique in et.\nEnim deserunt et dolor distinctio amet voluptatem et ad.\nOdio rerum qui esse beatae eos.\nEt quis aut.\nAut qui commodi aspernatur ut error quas nam itaque ducimus.\n \rSoluta quis repellat dolore quibusdam modi.\nQui rem consequatur hic.\nOfficiis ut recusandae est ullam est minus suscipit laudantium earum.",
      "photoUrl": "http://lorempixel.com/640/480/cats",
      "created": "2015-08-08T02:13:27.908Z",
      "updated": "2015-12-23T06:52:37.327Z",
      "event": true
    },
    {
      "id": 48,
      "center": "Polo Grande Félix",
      "title": "Investor Research Agent",
      "caption": "Similique sequi alias consectetur exercitationem assumenda blanditiis ea veritatis nostrum.",
      "text": "Est sunt nobis blanditiis.\nPlaceat non reiciendis et in assumenda sequi enim.\nIllo quia quia et provident ut minima libero.\n \rVero ratione minus et et.\nBeatae ea eum facere hic vero ipsam fuga aut molestiae.\nQuibusdam deleniti non.\nQui nisi asperiores libero inventore qui et ut.\nIllo est impedit voluptatem.\nTemporibus sit nulla.\n \rQui similique quia dolorem quo dolorum reprehenderit in.\nDebitis harum impedit fugiat est repellendus aliquid.\nRepudiandae placeat officiis.",
      "photoUrl": "http://lorempixel.com/640/480/nightlife",
      "created": "2015-06-22T13:19:01.987Z",
      "updated": "2015-04-25T14:10:17.843Z",
      "event": true
    },
    {
      "id": 49,
      "center": "Polo Ladislau do Norte",
      "title": "Lead Research Architect",
      "caption": "Dicta voluptas voluptatem non reprehenderit illum.",
      "text": "Corporis architecto aut hic.\nCommodi eveniet numquam voluptas doloremque voluptas quasi quae.\nEt est sit dolorem eligendi error.\nNam et enim.\n \rEt aperiam enim aspernatur illum id rerum sed architecto deleniti.\nCorrupti eaque natus est quas quia fugiat rerum quam.\nDebitis aut dolorem consequatur ex esse.\nSed ex facilis quos nobis quidem.\n \rQuod qui cum illo voluptatem qui recusandae iusto deserunt.\nQuia earum fuga accusantium ut alias ducimus in est.\nIn tenetur explicabo voluptatem voluptate unde ducimus.\nEum dolores ut consequatur voluptatum sit.\nIn non maxime qui sed voluptatem dolore atque illo.",
      "photoUrl": "http://lorempixel.com/640/480/city",
      "created": "2016-02-13T05:15:06.671Z",
      "updated": "2015-07-11T09:21:45.076Z",
      "event": false
    }
  ]
}